$GPGSA,A,3,04,10,25,12,31,05,02,29,,,,,2.3,1.3,2.0*3C
$GPRMC,024450.000,A,4825.5023,N,12219.9509,W,0.02,166.17,040811,,*1C
$GPGGA,024451.000,4825.5023,N,12219.9509,W,1,08,1.3,29.9,M,-16.8,M,,0000*51
$GPGSA,A,3,04,10,25,12,31,05,02,29,,,,,2.3,1.3,2.0*3C
$GPRMC,024451.000,A,4825.5023,N,12219.9509,W,0.03,160.63,040811,,*19
$GPGGA,024452.000,4825.5023,N,12219.9508,W,1,08,1.3,29.9,M,-16.8,M,,0000*53
$GPGSA,A,3,04,10,25,12,31,05,02,29,,,,,2.3,1.3,2.0*3C
$GPGSV,3,1,11,25,67,244,46,02,53,061,43,29,51,290,44,12,49,172,44*77
$GPGSV,3,2,11,05,43,124,44,10,30,056,39,31,21,302,41,04,08,056,30*7F
$GPGSV,3,3,11,09,06,221,,21,06,233,22,13,02,030,*43
$GPRMC,024452.000,A,4825.5023,N,12219.9508,W,0.03,157.40,040811,,*1E
$GPGGA,024453.000,4825.5023,N,12219.9508,W,1,08,1.3,29.9,M,-16.8,M,,0000*52
$GPGSA,A,3,04,10,25,12,31,05,02,29,,,,,2.3,1.3,2.0*3C
$GPRMC,024453.000,A,4825.5023,N,12219.9508,W,0.03,166.03,040811,,*1A
$GPGGA,024454.000,4825.5023,N,12219.9508,W,1,08,1.3,29.8,M,-16.8,M,,0000*54
$GPGSA,A,3,04,10,25,12,31,05,02,29,,,,,2.3,1.3,2.0*3C
$GPRMC,024454.000,A,4825.5023,N,12219.9508,W,0.02,164.09,040811,,*14
$GPGGA,024455.000,4825.5023,N,12219.9508,W,1,08,1.3,29.8,M,-16.8,M,,0000*55
$GPGSA,A,3,04,10,25,12,31,05,02,29,,,,,2.3,1.3,2.0*3C
$GPRMC,024455.000,A,4825.5023,N,12219.9508,W,0.03,159.68,040811,,*1D
$GPGGA,024456.000,4825.5023,N,12219.9508,W,1,08,1.3,29.8,M,-16.8,M,,0000*56
$GPGSA,A,3,04,10,25,12,31,05,02,29,,,,,2.3,1.3,2.0*3C
$GPRMC,024456.000,A,4825.5023,N,12219.9508,W,0.02,177.71,040811,,*1B
$GPGGA,024457.000,4825.5023,N,12219.9508,W,1,08,1.3,29.7,M,-16.8,M,,0000*58
$GPGSA,A,3,04,10,25,12,31,05,02,29,,,,,2.3,1.3,2.0*3C
$GPGSV,3,1,11,25,67,244,46,02,53,061,43,29,51,290,44,12,49,172,44*77
$GPGSV,3,2,11,05,43,124,44,10,30,056,40,31,21,302,41,04,08,056,30*71
$GPGSV,3,3,11,09,06,221,,21,06,233,23,13,02,030,*42
$GPRMC,024457.000,A,4825.5023,N,12219.9508,W,0.02,150.25,040811,,*1E
$GPGGA,024458.000,4825.5023,N,12219.9508,W,1,08,1.3,29.7,M,-16.8,M,,0000*57
$GPGSA,A,3,04,10,25,12,31,05,02,29,,,,,2.3,1.3,2.0*3C
$GPRMC,024458.000,A,4825.5023,N,12219.9508,W,0.03,207.81,040811,,*1F
$GPGGA,024459.000,4825.5023,N,12219.9508,W,1,08,1.3,29.7,M,-16.8,M,,0000*56
$GPGSA,A,3,04,10,25,12,31,05,02,29,,,,,2.3,1.3,2.0*3C
$GPRMC,024459.000,A,4825.5023,N,12219.9508,W,0.34,95.01,040811,,*2B
$GPGGA,024500.000,4825.5023,N,12219.9500,W,1,08,1.3,29.7,M,-16.8,M,,0000*53
$GPGSA,A,3,04,10,25,12,31,05,02,29,,,,,2.3,1.3,2.0*3C
$GPRMC,024500.000,A,4825.5023,N,12219.9500,W,3.08,87.50,040811,,*25
$GPGGA,024501.000,4825.5025,N,12219.9480,W,1,08,1.3,29.8,M,-16.8,M,,0000*52
$GPGSA,A,3,04,10,25,12,31,05,02,29,,,,,2.3,1.3,2.0*3C
$GPRMC,024501.000,A,4825.5025,N,12219.9480,W,6.50,81.92,040811,,*2B
$GPGGA,024502.000,4825.5029,N,12219.9448,W,1,08,1.3,30.1,M,-16.8,M,,0000*58
$GPGSA,A,3,04,10,25,12,31,05,02,29,,,,,2.3,1.3,2.0*3C
$GPGSV,3,1,11,25,67,244,40,02,53,061,43,29,51,290,43,12,49,172,44*76
$GPGSV,3,2,11,05,43,124,44,10,30,056,40,31,21,302,41,04,08,056,29*79
$GPGSV,3,3,11,09,06,221,,21,06,233,22,13,02,030,*43
$GPRMC,024502.000,A,4825.5029,N,12219.9448,W,8.85,79.58,040811,,*27
$GPGGA,024503.000,4825.5033,N,12219.9409,W,1,08,1.3,30.4,M,-16.8,M,,0000*52
$GPGSA,A,3,04,10,25,12,31,05,02,29,,,,,2.3,1.3,2.0*3C
$GPRMC,024503.000,A,4825.5033,N,12219.9409,W,9.80,81.97,040811,,*28
$GPGGA,024504.000,4825.5036,N,12219.9366,W,1,08,1.3,30.7,M,-16.8,M,,0000*5D
$GPGSA,A,3,04,10,25,12,31,05,02,29,,,,,2.3,1.3,2.0*3C
$GPRMC,024504.000,A,4825.5036,N,12219.9366,W,10.57,86.30,040811,,*1C
$GPGGA,024505.000,4825.5038,N,12219.9318,W,1,08,1.3,31.2,M,-16.8,M,,0000*5F
$GPGSA,A,3,04,10,25,12,31,05,02,29,,,,,2.3,1.3,2.0*3C
$GPRMC,024505.000,A,4825.5038,N,12219.9318,W,12.61,89.15,040811,,*15
$GPGGA,024506.000,4825.5038,N,12219.9260,W,1,08,1.3,31.6,M,-16.8,M,,0000*56
$GPGSA,A,3,04,10,25,12,31,05,02,29,,,,,2.3,1.3,2.0*3C
$GPRMC,024506.000,A,4825.5038,N,12219.9260,W,14.69,91.77,040811,,*1B
$GPGGA,024507.000,4825.5036,N,12219.9194,W,1,08,1.3,32.1,M,-16.8,M,,0000*55
$GPGSA,A,3,04,10,25,12,31,05,02,29,,,,,2.3,1.3,2.0*3C
$GPGSV,3,1,11,25,67,244,45,02,53,061,43,29,51,290,43,12,49,172,37*77
$GPGSV,3,2,11,05,43,124,40,10,30,056,37,31,21,302,41,04,08,056,27*73
$GPGSV,3,3,11,09,06,221,,21,06,233,24,13,02,030,*45
$GPRMC,024507.000,A,4825.5036,N,12219.9194,W,16.69,92.16,040811,,*1A
$GPGGA,024508.000,4825.5035,N,12219.9120,W,1,08,1.3,32.8,M,-16.8,M,,0000*5F
$GPGSA,A,3,04,10,25,12,31,05,02,29,,,,,2.3,1.3,2.0*3C
$GPRMC,024508.000,A,4825.5035,N,12219.9120,W,18.28,91.55,040811,,*16
$GPGGA,024509.000,4825.5034,N,12219.9042,W,1,08,1.3,33.4,M,-16.8,M,,0000*57
$GPGSA,A,3,04,10,25,12,31,05,02,29,,,,,2.3,1.3,2.0*3C
$GPRMC,024509.000,A,4825.5034,N,12219.9042,W,18.88,91.25,040811,,*1E
$GPGGA,024510.000,4825.5034,N,12219.8962,W,1,08,1.3,34.1,M,-16.8,M,,0000*57
$GPGSA,A,3,04,10,25,12,31,05,02,29,,,,,2.3,1.3,2.0*3C
$GPRMC,024510.000,A,4825.5034,N,12219.8962,W,19.03,89.95,040811,,*1C
$GPGGA,024511.000,4825.5035,N,12219.8882,W,1,08,1.3,34.8,M,-16.8,M,,0000*51
$GPGSA,A,3,04,10,25,12,31,05,02,29,,,,,2.3,1.3,2.0*3C
$GPRMC,024511.000,A,4825.5035,N,12219.8882,W,18.92,89.33,040811,,*16
$GPGGA,024512.000,4825.5036,N,12219.8805,W,1,08,1.3,35.6,M,-16.8,M,,0000*51
$GPGSA,A,3,04,10,25,12,31,05,02,29,,,,,2.3,1.3,2.0*3C
$GPGSV,3,1,11,25,67,244,45,02,53,061,42,29,51,290,42,12,49,172,41*76
$GPGSV,3,2,11,05,43,124,41,10,30,056,39,31,21,302,38,04,08,056,20*75
$GPGSV,3,3,11,09,06,221,,21,06,233,21,13,02,030,*40
$GPRMC,024512.000,A,4825.5036,N,12219.8805,W,17.78,89.83,040811,,*19
$GPGGA,024513.000,4825.5036,N,12219.8735,W,1,08,1.3,36.2,M,-16.8,M,,0000*5B
$GPGSA,A,3,04,10,25,12,31,05,02,29,,,,,2.3,1.3,2.0*3C
$GPRMC,024513.000,A,4825.5036,N,12219.8735,W,15.38,90.36,040811,,*14
$GPGGA,024514.000,4825.5035,N,12219.8673,W,1,08,1.3,36.9,M,-16.8,M,,0000*57
$GPGSA,A,3,04,10,25,12,31,05,02,29,,,,,2.3,1.3,2.0*3C
$GPRMC,024514.000,A,4825.5035,N,12219.8673,W,14.18,92.30,040811,,*14
$GPGGA,024515.000,4825.5033,N,12219.8615,W,1,08,1.3,37.5,M,-16.8,M,,0000*5D
$GPGSA,A,3,04,10,25,12,31,05,02,29,,,,,2.3,1.3,2.0*3C
$GPRMC,024515.000,A,4825.5033,N,12219.8615,W,13.69,92.77,040811,,*11
$GPGGA,024516.000,4825.5032,N,12219.8562,W,1,08,1.3,38.1,M,-16.8,M,,0000*57
$GPGSA,A,3,04,10,25,12,31,05,02,29,,,,,2.3,1.3,2.0*3C
$GPRMC,024516.000,A,4825.5032,N,12219.8562,W,11.63,91.73,040811,,*1F
$GPGGA,024517.000,4825.5031,N,12219.8522,W,1,08,1.3,38.4,M,-16.8,M,,0000*54
$GPGSA,A,3,04,10,25,12,31,05,02,29,,,,,2.3,1.3,2.0*3C
$GPGSV,3,1,11,25,67,243,46,02,53,061,42,29,51,291,42,12,49,172,42*70
$GPGSV,3,2,11,05,43,124,42,10,30,056,40,31,21,302,39,04,07,056,29*7F
$GPGSV,3,3,11,21,06,233,23,09,06,221,,13,03,030,*43
$GPRMC,024517.000,A,4825.5031,N,12219.8522,W,7.30,90.16,040811,,*2A
$GPGGA,024518.000,4825.5032,N,12219.8500,W,1,08,1.3,38.7,M,-16.8,M,,0000*5B
$GPGSA,A,3,04,10,25,12,31,05,02,29,,,,,2.3,1.3,2.0*3C
$GPRMC,024518.000,A,4825.5032,N,12219.8500,W,3.56,87.48,040811,,*2F
$GPGGA,024519.000,4825.5032,N,12219.8489,W,1,08,1.3,38.9,M,-16.8,M,,0000*54
$GPGSA,A,3,04,10,25,12,31,05,02,29,,,,,2.3,1.3,2.0*3C
$GPRMC,024519.000,A,4825.5032,N,12219.8489,W,2.15,86.02,040811,,*27
$GPGGA,024520.000,4825.5036,N,12219.8474,W,1,08,1.3,39.1,M,-16.8,M,,0000*51
$GPGSA,A,3,04,10,25,12,31,05,02,29,,,,,2.3,1.3,2.0*3C
$GPRMC,024520.000,A,4825.5036,N,12219.8474,W,5.48,63.58,040811,,*20
$GPGGA,024521.000,4825.5050,N,12219.8454,W,1,08,1.3,39.2,M,-16.8,M,,0000*51
$GPGSA,A,3,04,10,25,12,31,05,02,29,,,,,2.3,1.3,2.0*3C
$GPRMC,024521.000,A,4825.5050,N,12219.8454,W,8.81,34.81,040811,,*2D
$GPGGA,024522.000,4825.5075,N,12219.8437,W,1,08,1.3,39.3,M,-16.8,M,,0000*51
$GPGSA,A,3,04,10,25,12,31,05,02,29,,,,,2.3,1.3,2.0*3C
$GPGSV,3,1,11,25,67,243,45,02,53,061,43,29,51,291,42,12,49,172,43*73
$GPGSV,3,2,11,05,43,124,42,10,30,056,40,31,21,302,40,04,07,056,20*78
$GPGSV,3,3,11,21,06,233,30,09,06,221,,13,03,030,*41
$GPRMC,024522.000,A,4825.5075,N,12219.8437,W,11.39,16.53,040811,,*18
$GPGGA,024523.000,4825.5109,N,12219.8428,W,1,08,1.3,39.3,M,-16.8,M,,0000*54
$GPGSA,A,3,04,10,25,12,31,05,02,29,,,,,2.3,1.3,2.0*3C
$GPRMC,024523.000,A,4825.5109,N,12219.8428,W,13.06,5.07,040811,,*20
$GPGGA,024524.000,4825.5150,N,12219.8426,W,1,08,1.3,39.3,M,-16.8,M,,0000*51
$GPGSA,A,3,04,10,25,12,31,05,02,29,,,,,2.3,1.3,2.0*3C
$GPRMC,024524.000,A,4825.5150,N,12219.8426,W,16.08,0.34,040811,,*2B
$GPGGA,024525.000,4825.5199,N,12219.8429,W,1,08,1.3,39.4,M,-16.8,M,,0000*5D
$GPGSA,A,3,04,10,25,12,31,05,02,29,,,,,2.3,1.3,2.0*3C
$GPRMC,024525.000,A,4825.5199,N,12219.8429,W,18.30,356.22,040811,,*22
$GPGGA,024526.000,4825.5254,N,12219.8430,W,1,08,1.3,39.4,M,-16.8,M,,0000*54
$GPGSA,A,3,04,10,25,12,31,05,02,29,,,,,2.3,1.3,2.0*3C
$GPRMC,024526.000,A,4825.5254,N,12219.8430,W,20.66,1.57,040811,,*20
$GPGGA,024527.000,4825.5314,N,12219.8433,W,1,07,1.3,39.5,M,-16.8,M,,0000*5D
$GPGSA,A,3,10,25,12,31,05,02,29,,,,,,2.8,1.3,2.5*36
$GPGSV,3,1,11,25,67,243,45,02,53,061,43,29,51,291,43,12,49,172,43*72
$GPGSV,3,2,11,05,43,124,42,10,30,056,33,31,21,302,40,04,07,056,18*77
$GPGSV,3,3,11,21,06,233,24,09,06,221,,13,03,030,*44
$GPRMC,024527.000,A,4825.5314,N,12219.8433,W,22.71,355.83,040811,,*28
$GPGGA,024528.000,4825.5381,N,12219.8438,W,1,07,1.3,39.5,M,-16.8,M,,0000*55
$GPGSA,A,3,10,25,12,31,05,02,29,,,,,,2.8,1.3,2.5*36
$GPRMC,024528.000,A,4825.5381,N,12219.8438,W,24.12,359.10,040811,,*25
$GPGGA,024529.000,4825.5449,N,12219.8439,W,1,07,1.3,39.4,M,-16.8,M,,0000*57
$GPGSA,A,3,10,25,12,31,05,02,29,,,,,,2.8,1.3,2.5*36
$GPRMC,024529.000,A,4825.5449,N,12219.8439,W,24.42,0.17,040811,,*2B
$GPGGA,024530.000,4825.5518,N,12219.8440,W,1,07,1.3,39.5,M,-16.8,M,,0000*55
$GPGSA,A,3,10,25,12,31,05,02,29,,,,,,2.8,1.3,2.5*36
$GPRMC,024530.000,A,4825.5518,N,12219.8440,W,24.62,0.02,040811,,*2E
$GPGGA,024531.000,4825.5589,N,12219.8441,W,1,08,1.3,39.6,M,-16.8,M,,0000*51
$GPGSA,A,3,04,10,25,12,31,05,02,29,,,,,2.3,1.3,2.0*3C
$GPRMC,024531.000,A,4825.5589,N,12219.8441,W,25.58,359.69,040811,,*2C
$GPGGA,024532.000,4825.5662,N,12219.8442,W,1,07,1.3,40.0,M,-16.8,M,,0000*50
$GPGSA,A,3,10,25,12,31,05,02,29,,,,,,2.8,1.3,2.5*36
$GPGSV,3,1,11,25,67,243,44,02,53,061,43,29,51,291,42,12,49,172,43*72
$GPGSV,3,2,11,05,43,124,41,10,30,056,37,31,21,302,37,04,07,056,20*7B
$GPGSV,3,3,11,21,06,233,33,09,06,221,,13,03,030,*42
$GPRMC,024532.000,A,4825.5662,N,12219.8442,W,26.50,359.47,040811,,*2D
$GPGGA,024533.000,4825.5737,N,12219.8443,W,1,07,1.3,40.0,M,-16.8,M,,0000*51
$GPGSA,A,3,10,25,12,31,05,02,29,,,,,,2.8,1.3,2.5*36
$GPRMC,024533.000,A,4825.5737,N,12219.8443,W,26.88,0.15,040811,,*21
$GPGGA,024534.000,4825.5813,N,12219.8443,W,1,07,1.3,40.4,M,-16.8,M,,0000*5B
$GPGSA,A,3,10,25,12,31,05,02,29,,,,,,2.8,1.3,2.5*36
$GPRMC,024534.000,A,4825.5813,N,12219.8443,W,27.09,359.81,040811,,*25
$GPGGA,024535.000,4825.5888,N,12219.8443,W,1,07,1.3,40.8,M,-16.8,M,,0000*54
$GPGSA,A,3,10,25,12,31,05,02,29,,,,,,2.8,1.3,2.5*36
$GPRMC,024535.000,A,4825.5888,N,12219.8443,W,26.84,359.55,040811,,*2B
$GPGGA,024536.000,4825.5963,N,12219.8445,W,1,07,1.3,40.9,M,-16.8,M,,0000*54
$GPGSA,A,3,10,25,12,31,05,02,29,,,,,,2.8,1.3,2.5*36
$GPRMC,024536.000,A,4825.5963,N,12219.8445,W,26.51,358.96,040811,,*2C
$GPGGA,024537.000,4825.6037,N,12219.8448,W,1,07,1.3,40.9,M,-16.8,M,,0000*53
$GPGSA,A,3,10,25,12,31,05,02,29,,,,,,2.8,1.3,2.5*36
$GPGSV,3,1,11,25,67,243,44,02,53,061,43,29,51,291,42,12,49,172,43*72
$GPGSV,3,2,11,05,43,124,41,10,30,056,39,31,21,302,36,04,07,056,*76
$GPGSV,3,3,11,21,06,233,28,09,06,221,,13,03,030,*48
$GPRMC,024537.000,A,4825.6037,N,12219.8448,W,26.46,358.76,040811,,*23
$GPGGA,024538.000,4825.6111,N,12219.8450,W,1,07,1.3,40.9,M,-16.8,M,,0000*50
$GPGSA,A,3,10,25,12,31,05,02,29,,,,,,2.8,1.3,2.5*36
$GPRMC,024538.000,A,4825.6111,N,12219.8450,W,26.37,358.68,040811,,*29
$GPGGA,024539.000,4825.6185,N,12219.8453,W,1,07,1.3,40.6,M,-16.8,M,,0000*50
$GPGSA,A,3,10,25,12,31,05,02,29,,,,,,2.8,1.3,2.5*36
$GPRMC,024539.000,A,4825.6185,N,12219.8453,W,26.58,359.31,040811,,*22
$GPGGA,024540.000,4825.6259,N,12219.8454,W,1,07,1.3,40.3,M,-16.8,M,,0000*5E
$GPGSA,A,3,10,25,12,31,05,02,29,,,,,,2.8,1.3,2.5*36
$GPRMC,024540.000,A,4825.6259,N,12219.8454,W,26.64,359.43,040811,,*23
$GPGGA,024541.000,4825.6333,N,12219.8456,W,1,07,1.3,40.0,M,-16.8,M,,0000*53
$GPGSA,A,3,10,25,12,31,05,02,29,,,,,,2.8,1.3,2.5*36
$GPRMC,024541.000,A,4825.6333,N,12219.8456,W,26.14,359.52,040811,,*2A
$GPGGA,024542.000,4825.6405,N,12219.8457,W,1,07,1.3,39.7,M,-16.8,M,,0000*5A
$GPGSA,A,3,10,25,12,31,05,02,29,,,,,,2.8,1.3,2.5*36
$GPGSV,3,1,11,25,67,243,44,02,53,061,43,29,51,291,42,12,49,172,43*72
$GPGSV,3,2,11,05,43,124,37,10,30,056,39,31,21,302,37,04,07,056,*76
$GPGSV,3,3,11,21,06,233,28,09,06,221,,13,03,030,*48
$GPRMC,024542.000,A,4825.6405,N,12219.8457,W,25.26,359.37,040811,,*2B
$GPGGA,024543.000,4825.6475,N,12219.8459,W,1,07,1.3,39.5,M,-16.8,M,,0000*50
$GPGSA,A,3,10,25,12,31,05,02,29,,,,,,2.8,1.3,2.5*36
$GPRMC,024543.000,A,4825.6475,N,12219.8459,W,24.74,359.66,040811,,*21
$GPGGA,024544.000,4825.6545,N,12219.8460,W,1,07,1.3,39.2,M,-16.8,M,,0000*58
$GPGSA,A,3,10,25,12,31,05,02,29,,,,,,2.8,1.3,2.5*36
$GPRMC,024544.000,A,4825.6545,N,12219.8460,W,25.29,359.03,040811,,*24
$GPGGA,024545.000,4825.6616,N,12219.8463,W,1,07,1.3,39.0,M,-16.8,M,,0000*5D
$GPGSA,A,3,10,25,12,31,05,02,29,,,,,,2.8,1.3,2.5*36
$GPRMC,024545.000,A,4825.6616,N,12219.8463,W,25.62,358.85,040811,,*23
$GPGGA,024546.000,4825.6687,N,12219.8466,W,1,07,1.3,38.6,M,-16.8,M,,0000*54
$GPGSA,A,3,10,25,12,31,05,02,29,,,,,,2.8,1.3,2.5*36
$GPRMC,024546.000,A,4825.6687,N,12219.8466,W,25.17,358.35,040811,,*24
$GPGGA,024547.000,4825.6757,N,12219.8469,W,1,07,1.3,38.3,M,-16.8,M,,0000*53
$GPGSA,A,3,10,25,12,31,05,02,29,,,,,,2.8,1.3,2.5*36
$GPGSV,3,1,11,25,67,242,44,02,53,061,43,29,51,291,42,12,48,172,43*72
$GPGSV,3,2,11,05,43,123,40,10,29,056,39,31,21,301,38,04,07,056,*75
$GPGSV,3,3,11,21,07,233,23,09,06,220,,13,03,029,*4B
$GPRMC,024547.000,A,4825.6757,N,12219.8469,W,24.37,358.83,040811,,*28
$GPGGA,024548.000,4825.6823,N,12219.8470,W,1,07,1.3,38.0,M,-16.8,M,,0000*5B
$GPGSA,A,3,10,25,12,31,05,02,29,,,,,,2.8,1.3,2.5*36
$GPRMC,024548.000,A,4825.6823,N,12219.8470,W,23.27,0.21,040811,,*23
$GPGGA,024549.000,4825.6886,N,12219.8470,W,1,07,1.3,37.7,M,-16.8,M,,0000*5D
$GPGSA,A,3,10,25,12,31,05,02,29,,,,,,2.8,1.3,2.5*36
$GPRMC,024549.000,A,4825.6886,N,12219.8470,W,21.57,0.63,040811,,*2E
$GPGGA,024550.000,4825.6942,N,12219.8469,W,1,07,1.3,37.5,M,-16.8,M,,0000*56
$GPGSA,A,3,10,25,12,31,05,02,29,,,,,,2.8,1.3,2.5*36
$GPRMC,024550.000,A,4825.6942,N,12219.8469,W,19.06,1.36,040811,,*29
$GPGGA,024551.000,4825.6989,N,12219.8467,W,1,07,1.3,37.3,M,-16.8,M,,0000*58
$GPGSA,A,3,10,25,12,31,05,02,29,,,,,,2.8,1.3,2.5*36
$GPRMC,024551.000,A,4825.6989,N,12219.8467,W,14.81,2.88,040811,,*25
$GPGGA,024552.000,4825.7023,N,12219.8462,W,1,07,1.3,37.3,M,-16.8,M,,0000*56
$GPGSA,A,3,10,25,12,31,05,02,29,,,,,,2.8,1.3,2.5*36
$GPGSV,3,1,11,25,67,242,43,02,53,061,43,29,51,291,42,12,48,172,43*75
$GPGSV,3,2,11,05,43,123,41,10,29,056,41,31,21,301,38,04,07,056,*7B
$GPGSV,3,3,11,21,07,233,21,09,06,220,,13,03,029,*49
$GPRMC,024552.000,A,4825.7023,N,12219.8462,W,9.95,8.56,040811,,*1B
$GPGGA,024553.000,4825.7045,N,12219.8455,W,1,07,1.3,37.4,M,-16.8,M,,0000*54
$GPGSA,A,3,10,25,12,31,05,02,29,,,,,,2.8,1.3,2.5*36
$GPRMC,024553.000,A,4825.7045,N,12219.8455,W,6.27,18.88,040811,,*2A
$GPGGA,024554.000,4825.7056,N,12219.8448,W,1,07,1.3,37.4,M,-16.8,M,,0000*5D
$GPGSA,A,3,10,25,12,31,05,02,29,,,,,,2.8,1.3,2.5*36
$GPRMC,024554.000,A,4825.7056,N,12219.8448,W,2.94,26.65,040811,,*21
$GPGGA,024555.000,4825.7063,N,12219.8442,W,1,08,1.3,37.5,M,-16.8,M,,0000*5E
$GPGSA,A,3,04,10,25,12,31,05,02,29,,,,,2.3,1.3,1.9*36
$GPRMC,024555.000,A,4825.7063,N,12219.8442,W,3.33,32.39,040811,,*2C
$GPGGA,024556.000,4825.7073,N,12219.8426,W,1,08,1.3,37.7,M,-16.8,M,,0000*5C
$GPGSA,A,3,04,10,25,12,31,05,02,29,,,,,2.3,1.3,1.9*36
$GPRMC,024556.000,A,4825.7073,N,12219.8426,W,7.28,50.71,040811,,*2A
$GPGGA,024557.000,4825.7083,N,12219.8393,W,1,08,1.3,38.0,M,-16.8,M,,0000*53
$GPGSA,A,3,04,10,25,12,31,05,02,29,,,,,2.3,1.3,1.9*36
$GPGSV,3,1,11,25,67,242,44,02,53,061,43,29,51,291,41,12,48,172,43*71
$GPGSV,3,2,11,05,43,123,42,10,29,056,41,31,21,301,41,04,07,056,25*71
$GPGSV,3,3,11,21,07,233,21,09,06,220,,13,03,029,*49
$GPRMC,024557.000,A,4825.7083,N,12219.8393,W,10.52,75.11,040811,,*17
$GPGGA,024558.000,4825.7088,N,12219.8342,W,1,08,1.3,38.4,M,-16.8,M,,0000*5F
$GPGSA,A,3,04,10,25,12,31,05,02,29,,,,,2.3,1.3,1.9*36
$GPRMC,024558.000,A,4825.7088,N,12219.8342,W,13.71,87.26,040811,,*14
$GPGGA,024559.000,4825.7088,N,12219.8284,W,1,08,1.3,39.0,M,-16.8,M,,0000*50
$GPGSA,A,3,04,10,25,12,31,05,02,29,,,,,2.3,1.3,1.9*36
$GPRMC,024559.000,A,4825.7088,N,12219.8284,W,14.13,89.46,040811,,*15
$GPGGA,024600.000,4825.7089,N,12219.8220,W,1,08,1.3,39.4,M,-16.8,M,,0000*54
$GPGSA,A,3,04,10,25,12,31,05,02,29,,,,,2.3,1.3,1.9*36
$GPRMC,024600.000,A,4825.7089,N,12219.8220,W,16.29,88.60,040811,,*1B
$GPGGA,024601.000,4825.7090,N,12219.8145,W,1,08,1.3,40.1,M,-16.8,M,,0000*56
$GPGSA,A,3,04,10,25,12,31,05,02,29,,,,,2.3,1.3,1.9*36
$GPRMC,024601.000,A,4825.7090,N,12219.8145,W,18.89,88.64,040811,,*12
$GPGGA,024602.000,4825.7090,N,12219.8059,W,1,08,1.3,40.8,M,-16.8,M,,0000*50
$GPGSA,A,3,04,10,25,12,31,05,02,29,,,,,2.3,1.3,1.9*36
$GPGSV,3,1,11,25,67,242,46,02,53,061,43,29,51,291,43,12,48,172,43*71
$GPGSV,3,2,11,05,43,123,43,10,29,056,40,31,21,301,38,04,07,056,38*73
$GPGSV,3,3,11,21,07,233,28,09,06,220,,13,03,029,*40
$GPRMC,024602.000,A,4825.7090,N,12219.8059,W,21.81,89.76,040811,,*1D
$GPGGA,024603.000,4825.7090,N,12219.7962,W,1,08,1.3,41.3,M,-16.8,M,,0000*55
$GPGSA,A,3,04,10,25,12,31,05,02,29,,,,,2.3,1.3,1.9*36
$GPRMC,024603.000,A,4825.7090,N,12219.7962,W,24.08,90.44,040811,,*1F
$GPGGA,024604.000,4825.7089,N,12219.7860,W,1,08,1.3,41.8,M,-16.8,M,,0000*52
$GPGSA,A,3,04,10,25,12,31,05,02,29,,,,,2.3,1.3,1.9*36
$GPRMC,024604.000,A,4825.7089,N,12219.7860,W,24.60,90.43,040811,,*1A
$GPGGA,024605.000,4825.7088,N,12219.7753,W,1,08,1.3,42.2,M,-16.8,M,,0000*54
$GPGSA,A,3,04,10,25,12,31,05,02,29,,,,,2.3,1.3,1.9*36
$GPRMC,024605.000,A,4825.7088,N,12219.7753,W,26.32,90.22,040811,,*17
$GPGGA,024606.000,4825.7087,N,12219.7638,W,1,08,1.3,42.5,M,-16.8,M,,0000*53
$GPGSA,A,3,04,10,25,12,31,05,02,29,,,,,2.3,1.3,1.9*36
$GPRMC,024606.000,A,4825.7087,N,12219.7638,W,28.07,90.27,040811,,*1A
$GPGGA,024607.000,4825.7086,N,12219.7518,W,1,08,1.3,42.8,M,-16.8,M,,0000*5F
$GPGSA,A,3,04,10,25,12,31,05,02,29,,,,,2.3,1.3,1.9*36
$GPGSV,3,1,11,25,67,242,46,02,53,061,43,29,51,291,43,12,48,172,43*71
$GPGSV,3,2,11,05,43,123,42,10,29,056,41,31,21,301,39,04,07,056,38*72
$GPGSV,3,3,11,21,07,233,19,09,06,220,,13,03,029,*42
$GPRMC,024607.000,A,4825.7086,N,12219.7518,W,28.86,90.39,040811,,*1D
$GPGGA,024608.000,4825.7085,N,12219.7397,W,1,08,1.3,42.9,M,-16.8,M,,0000*53
$GPGSA,A,3,04,10,25,12,31,05,02,29,,,,,2.3,1.3,1.9*36
$GPRMC,024608.000,A,4825.7085,N,12219.7397,W,28.71,90.46,040811,,*10
$GPGGA,024609.000,4825.7084,N,12219.7275,W,1,08,1.3,42.8,M,-16.8,M,,0000*5F
$GPGSA,A,3,04,10,25,12,31,05,02,29,,,,,2.3,1.3,1.9*36
$GPRMC,024609.000,A,4825.7084,N,12219.7275,W,29.01,90.15,040811,,*1D
$GPGGA,024610.000,4825.7084,N,12219.7151,W,1,08,1.3,42.6,M,-16.8,M,,0000*5C
$GPGSA,A,3,04,10,25,12,31,05,02,29,,,,,2.3,1.3,1.9*36
$GPRMC,024610.000,A,4825.7084,N,12219.7151,W,29.80,89.98,040811,,*14
$GPGGA,024611.000,4825.7083,N,12219.7025,W,1,08,1.3,42.4,M,-16.8,M,,0000*5A
$GPGSA,A,3,04,10,25,12,31,05,02,29,,,,,2.3,1.3,1.9*36
$GPRMC,024611.000,A,4825.7083,N,12219.7025,W,30.43,90.26,040811,,*1A
$GPGGA,024612.000,4825.7082,N,12219.6895,W,1,08,1.3,42.2,M,-16.8,M,,0000*5C
$GPGSA,A,3,04,10,25,12,31,05,02,29,,,,,2.3,1.3,1.9*36
$GPGSV,3,1,11,25,67,242,47,02,52,061,43,29,52,291,43,12,48,172,44*75
$GPGSV,3,2,11,05,43,123,42,10,29,056,41,31,21,301,40,04,07,056,38*7C
$GPGSV,3,3,11,21,07,233,18,09,06,220,,13,03,029,*43
$GPRMC,024612.000,A,4825.7082,N,12219.6895,W,30.87,90.81,040811,,*1F
$GPGGA,024613.000,4825.7079,N,12219.6765,W,1,08,1.3,42.0,M,-16.8,M,,0000*5B
$GPGSA,A,3,04,10,25,12,31,05,02,29,,,,,2.3,1.3,1.9*36
$GPRMC,024613.000,A,4825.7079,N,12219.6765,W,30.91,91.68,040811,,*1B
$GPGGA,024614.000,4825.7076,N,12219.6636,W,1,08,1.3,41.8,M,-16.8,M,,0000*5F
$GPGSA,A,3,04,10,25,12,31,05,02,29,,,,,2.3,1.3,1.9*36
$GPRMC,024614.000,A,4825.7076,N,12219.6636,W,30.79,92.75,040811,,*1D
$GPGGA,024615.000,4825.7071,N,12219.6507,W,1,08,1.3,41.6,M,-16.8,M,,0000*56
$GPGSA,A,3,04,10,25,12,31,05,02,29,,,,,2.3,1.3,1.9*36
$GPRMC,024615.000,A,4825.7071,N,12219.6507,W,30.60,92.87,040811,,*1F
$GPGGA,024616.000,4825.7067,N,12219.6379,W,1,08,1.3,41.4,M,-16.8,M,,0000*5F
$GPGSA,A,3,04,10,25,12,31,05,02,29,,,,,2.3,1.3,1.9*36
$GPRMC,024616.000,A,4825.7067,N,12219.6379,W,30.22,92.30,040811,,*1E
$GPGGA,024617.000,4825.7064,N,12219.6252,W,1,08,1.3,41.1,M,-16.8,M,,0000*50
$GPGSA,A,3,04,10,25,12,31,05,02,29,,,,,2.3,1.3,1.9*36
$GPGSV,3,1,11,25,67,242,47,02,52,061,43,29,52,291,44,12,48,172,43*75
$GPGSV,3,2,11,05,44,123,42,10,29,056,41,31,21,301,39,04,07,056,29*75
$GPGSV,3,3,11,21,07,233,10,09,06,220,,13,03,029,*4B
$GPRMC,024617.000,A,4825.7064,N,12219.6252,W,30.12,91.56,040811,,*14
$GPGGA,024618.000,4825.7062,N,12219.6125,W,1,08,1.3,40.9,M,-16.8,M,,0000*53
$GPGSA,A,3,04,10,25,12,31,05,02,29,,,,,2.3,1.3,1.9*36
$GPRMC,024618.000,A,4825.7062,N,12219.6125,W,30.13,90.93,040811,,*17
$GPGGA,024619.000,4825.7060,N,12219.6000,W,1,08,1.3,40.6,M,-16.8,M,,0000*59
$GPGSA,A,3,04,10,25,12,31,05,02,29,,,,,2.3,1.3,1.9*36
$GPRMC,024619.000,A,4825.7060,N,12219.6000,W,29.47,90.51,040811,,*15
$GPGGA,024620.000,4825.7059,N,12219.5877,W,1,08,1.3,40.4,M,-16.8,M,,0000*50
$GPGSA,A,3,04,10,25,12,31,05,02,29,,,,,2.3,1.3,1.9*36
$GPRMC,024620.000,A,4825.7059,N,12219.5877,W,29.09,90.51,040811,,*14
$GPGGA,024621.000,4825.7058,N,12219.5754,W,1,08,1.3,40.2,M,-16.8,M,,0000*58
$GPGSA,A,3,04,10,25,12,31,05,02,29,,,,,2.3,1.3,1.9*36
$GPRMC,024621.000,A,4825.7058,N,12219.5754,W,29.39,90.68,040811,,*13
$GPGGA,024622.000,4825.7057,N,12219.5630,W,1,08,1.3,40.1,M,-16.8,M,,0000*54
$GPGSA,A,3,04,10,25,12,31,05,02,29,,,,,2.3,1.3,1.9*36
$GPGSV,3,1,11,25,67,242,47,02,52,061,43,29,52,291,44,12,48,172,43*75
$GPGSV,3,2,11,05,44,123,42,10,29,056,42,31,21,301,39,04,07,056,32*7C
$GPGSV,3,3,11,21,07,233,,09,06,220,,13,03,029,*4A
$GPRMC,024622.000,A,4825.7057,N,12219.5630,W,29.74,91.10,040811,,*1B
$GPGGA,024623.000,4825.7055,N,12219.5504,W,1,08,1.3,40.3,M,-16.8,M,,0000*51
$GPGSA,A,3,04,10,25,12,31,05,02,29,,,,,2.3,1.3,1.9*36
$GPRMC,024623.000,A,4825.7055,N,12219.5504,W,30.05,91.24,040811,,*15
$GPGGA,024624.000,4825.7053,N,12219.5377,W,1,08,1.3,40.6,M,-16.8,M,,0000*57
$GPGSA,A,3,04,10,25,12,31,05,02,29,,,,,2.3,1.3,1.9*36
$GPRMC,024624.000,A,4825.7053,N,12219.5377,W,30.34,91.06,040811,,*14
$GPGGA,024625.000,4825.7052,N,12219.5249,W,1,07,1.3,40.9,M,-16.8,M,,0000*5B
$GPGSA,A,3,10,25,12,31,05,02,29,,,,,,2.8,1.3,2.5*36
$GPRMC,024625.000,A,4825.7052,N,12219.5249,W,30.32,91.02,040811,,*1A
$GPGGA,024626.000,4825.7050,N,12219.5122,W,1,07,1.3,41.4,M,-16.8,M,,0000*58
$GPGSA,A,3,10,25,12,31,05,02,29,,,,,,2.8,1.3,2.5*36
$GPRMC,024626.000,A,4825.7050,N,12219.5122,W,30.13,91.25,040811,,*13
$GPGGA,024627.000,4825.7050,N,12219.5000,W,1,07,1.3,41.9,M,-16.8,M,,0000*55
$GPGSA,A,3,10,25,12,31,05,02,29,,,,,,2.8,1.3,2.5*36
$GPGSV,3,1,11,25,67,242,46,02,52,061,43,29,52,291,43,12,48,172,43*73
$GPGSV,3,2,11,05,44,123,41,10,29,056,42,31,21,301,39,04,07,056,*7E
$GPGSV,3,3,11,21,07,233,29,09,06,220,,13,03,029,*41
$GPRMC,024627.000,A,4825.7050,N,12219.5000,W,27.89,88.34,040811,,*1E
$GPGGA,024628.000,4825.7055,N,12219.4893,W,1,07,1.3,42.4,M,-16.8,M,,0000*52
$GPGSA,A,3,10,25,12,31,05,02,29,,,,,,2.8,1.3,2.5*36
$GPRMC,024628.000,A,4825.7055,N,12219.4893,W,23.67,83.44,040811,,*1F
$GPGGA,024629.000,4825.7061,N,12219.4803,W,1,07,1.3,42.9,M,-16.8,M,,0000*50
$GPGSA,A,3,10,25,12,31,05,02,29,,,,,,2.8,1.3,2.5*36
$GPRMC,024629.000,A,4825.7061,N,12219.4803,W,19.25,84.59,040811,,*14
$GPGGA,024630.000,4825.7064,N,12219.4733,W,1,07,1.3,43.3,M,-16.8,M,,0000*5A
$GPGSA,A,3,10,25,12,31,05,02,29,,,,,,2.8,1.3,2.5*36
$GPRMC,024630.000,A,4825.7064,N,12219.4733,W,14.54,87.53,040811,,*17
$GPGGA,024631.000,4825.7070,N,12219.4678,W,1,07,1.3,43.6,M,-16.8,M,,0000*55
$GPGSA,A,3,10,25,12,31,05,02,29,,,,,,2.8,1.3,2.5*36
$GPRMC,024631.000,A,4825.7070,N,12219.4678,W,12.44,75.38,040811,,*1A
$GPGGA,024632.000,4825.7086,N,12219.4633,W,1,07,1.3,43.8,M,-16.8,M,,0000*5E
$GPGSA,A,3,10,25,12,31,05,02,29,,,,,,2.8,1.3,2.5*36
$GPGSV,3,1,11,25,67,242,46,02,52,061,43,29,52,291,42,12,48,172,43*72
$GPGSV,3,2,11,05,44,123,42,10,29,056,39,31,21,301,40,04,07,056,*7F
$GPGSV,3,3,11,21,07,233,31,09,06,220,,13,03,029,*48
$GPRMC,024632.000,A,4825.7086,N,12219.4633,W,13.05,48.78,040811,,*11
$GPGGA,024633.000,4825.7117,N,12219.4601,W,1,07,1.3,43.8,M,-16.8,M,,0000*57
$GPGSA,A,3,10,25,12,31,05,02,29,,,,,,2.8,1.3,2.5*36
$GPRMC,024633.000,A,4825.7117,N,12219.4601,W,14.90,23.52,040811,,*16
$GPGGA,024634.000,4825.7160,N,12219.4584,W,1,07,1.3,43.8,M,-16.8,M,,0000*5E
$GPGSA,A,3,10,25,12,31,05,02,29,,,,,,2.8,1.3,2.5*36
$GPRMC,024634.000,A,4825.7160,N,12219.4584,W,17.10,8.25,040811,,*2D
$GPGGA,024635.000,4825.7210,N,12219.4579,W,1,07,1.3,43.6,M,-16.8,M,,0000*57
$GPGSA,A,3,10,25,12,31,05,02,29,,,,,,2.8,1.3,2.5*36
$GPRMC,024635.000,A,4825.7210,N,12219.4579,W,18.89,2.07,040811,,*2F
$GPGGA,024636.000,4825.7265,N,12219.4579,W,1,07,1.3,42.9,M,-16.8,M,,0000*58
$GPGSA,A,3,10,25,12,31,05,02,29,,,,,,2.8,1.3,2.5*36
$GPRMC,024636.000,A,4825.7265,N,12219.4579,W,20.54,359.93,040811,,*25
$GPGGA,024637.000,4825.7325,N,12219.4581,W,1,07,1.3,42.0,M,-16.8,M,,0000*52
$GPGSA,A,3,10,25,12,31,05,02,29,,,,,,2.8,1.3,2.5*36
$GPGSV,3,1,11,25,67,242,44,02,52,061,31,29,52,291,42,12,48,172,43*75
$GPGSV,3,2,11,05,44,123,26,10,29,056,23,31,21,301,40,04,07,056,*76
$GPGSV,3,3,11,21,07,233,30,09,06,220,,13,03,029,*49
$GPRMC,024637.000,A,4825.7325,N,12219.4581,W,22.95,0.49,040811,,*21
$GPGGA,024638.000,4825.7390,N,12219.4579,W,1,07,1.3,41.3,M,-16.8,M,,0000*54
$GPGSA,A,3,10,25,12,31,05,02,29,,,,,,2.8,1.3,2.5*36
$GPRMC,024638.000,A,4825.7390,N,12219.4579,W,24.48,2.96,040811,,*21
$GPGGA,024639.000,4825.7458,N,12219.4577,W,1,07,1.3,40.9,M,-16.8,M,,0000*53
$GPGSA,A,3,10,25,12,31,05,02,29,,,,,,2.8,1.3,2.5*36
$GPRMC,024639.000,A,4825.7458,N,12219.4577,W,24.22,1.39,040811,,*27
$GPGGA,024640.000,4825.7524,N,12219.4579,W,1,07,1.3,40.1,M,-16.8,M,,0000*51
$GPGSA,A,3,10,25,12,31,05,02,29,,,,,,2.8,1.3,2.5*36
$GPRMC,024640.000,A,4825.7524,N,12219.4579,W,23.12,359.15,040811,,*29
$GPGGA,024641.000,4825.7587,N,12219.4582,W,1,07,1.3,39.6,M,-16.8,M,,0000*54
$GPGSA,A,3,10,25,12,31,05,02,29,,,,,,2.8,1.3,2.5*36
$GPRMC,024641.000,A,4825.7587,N,12219.4582,W,22.50,358.22,040811,,*27
$GPGGA,024642.000,4825.7649,N,12219.4586,W,1,07,1.3,39.5,M,-16.8,M,,0000*51
$GPGSA,A,3,10,25,12,31,05,02,29,,,,,,2.8,1.3,2.5*36
$GPGSV,3,1,11,25,67,242,43,02,52,061,39,29,52,291,42,12,48,172,42*7B
$GPGSV,3,2,11,05,44,123,30,10,29,056,29,31,21,301,35,04,07,056,*79
$GPGSV,3,3,11,21,07,233,25,09,06,220,,13,03,029,*4D
$GPRMC,024642.000,A,4825.7649,N,12219.4586,W,23.16,359.55,040811,,*23
$GPGGA,024643.000,4825.7713,N,12219.4587,W,1,07,1.3,38.9,M,-16.8,M,,0000*52
$GPGSA,A,3,10,25,12,31,05,02,29,,,,,,2.8,1.3,2.5*36
$GPRMC,024643.000,A,4825.7713,N,12219.4587,W,22.86,0.34,040811,,*2D
$GPGGA,024644.000,4825.7776,N,12219.4586,W,1,07,1.3,38.4,M,-16.8,M,,0000*5A
$GPGSA,A,3,10,25,12,31,05,02,29,,,,,,2.8,1.3,2.5*36
$GPRMC,024644.000,A,4825.7776,N,12219.4586,W,23.07,1.72,040811,,*23
$GPGGA,024645.000,4825.7840,N,12219.4583,W,1,07,1.3,37.8,M,-16.8,M,,0000*57
$GPGSA,A,3,10,25,12,31,05,02,29,,,,,,2.8,1.3,2.5*36
$GPRMC,024645.000,A,4825.7840,N,12219.4583,W,23.03,2.30,040811,,*2C
$GPGGA,024646.000,4825.7903,N,12219.4578,W,1,07,1.3,37.4,M,-16.8,M,,0000*5A
$GPGSA,A,3,10,25,12,31,05,02,29,,,,,,2.8,1.3,2.5*36
$GPRMC,024646.000,A,4825.7903,N,12219.4578,W,22.98,3.22,040811,,*2C
$GPGGA,024647.000,4825.7963,N,12219.4577,W,1,07,1.3,36.1,M,-16.8,M,,0000*56
$GPGSA,A,3,10,25,12,31,05,02,29,,,,,,2.8,1.3,2.5*36
$GPGSV,3,1,11,25,67,242,40,02,52,061,38,29,52,291,40,12,48,172,42*7B
$GPGSV,3,2,11,05,44,123,25,10,29,056,36,31,21,301,34,04,07,056,*72
$GPGSV,3,3,11,21,07,233,20,09,06,220,,13,03,029,*48
$GPRMC,024647.000,A,4825.7963,N,12219.4577,W,20.69,1.28,040811,,*20
$GPGGA,024648.000,4825.8016,N,12219.4578,W,1,07,1.3,35.4,M,-16.8,M,,0000*54
$GPGSA,A,3,10,25,12,31,05,02,29,,,,,,2.8,1.3,2.5*36
$GPRMC,024648.000,A,4825.8016,N,12219.4578,W,17.97,0.07,040811,,*2D
$GPGGA,024649.000,4825.8061,N,12219.4578,W,1,07,1.3,34.8,M,-16.8,M,,0000*58
$GPGSA,A,3,10,25,12,31,05,02,29,,,,,,2.8,1.3,2.5*36
$GPRMC,024649.000,A,4825.8061,N,12219.4578,W,14.98,2.34,040811,,*22
$GPGGA,024650.000,4825.8097,N,12219.4572,W,1,07,1.3,34.2,M,-16.8,M,,0000*59
$GPGSA,A,3,10,25,12,31,05,02,29,,,,,,2.8,1.3,2.5*36
$GPRMC,024650.000,A,4825.8097,N,12219.4572,W,11.91,13.57,040811,,*10
$GPGGA,024651.000,4825.8123,N,12219.4554,W,1,07,1.3,33.4,M,-16.8,M,,0000*53
$GPGSA,A,3,10,25,12,31,05,02,29,,,,,,2.8,1.3,2.5*36
$GPRMC,024651.000,A,4825.8123,N,12219.4554,W,10.22,37.84,040811,,*1A
$GPGGA,024652.000,4825.8140,N,12219.4522,W,1,07,1.3,32.8,M,-16.8,M,,0000*59
$GPGSA,A,3,10,25,12,31,05,02,29,,,,,,2.8,1.3,2.5*36
$GPGSV,3,1,11,25,67,242,43,02,52,061,42,29,52,291,41,12,48,172,42*74
$GPGSV,3,2,11,05,44,123,41,10,29,056,32,31,21,301,40,04,07,056,*77
$GPGSV,3,3,11,21,07,233,19,09,06,220,,13,03,029,*42
$GPRMC,024652.000,A,4825.8140,N,12219.4522,W,10.55,62.78,040811,,*1E
$GPGGA,024653.000,4825.8149,N,12219.4477,W,1,07,1.3,32.0,M,-16.8,M,,0000*58
$GPGSA,A,3,10,25,12,31,05,02,29,,,,,,2.8,1.3,2.5*36
$GPRMC,024653.000,A,4825.8149,N,12219.4477,W,12.53,81.08,040811,,*19
$GPGGA,024654.000,4825.8150,N,12219.4420,W,1,07,1.3,31.5,M,-16.8,M,,0000*53
$GPGSA,A,3,10,25,12,31,05,02,29,,,,,,2.8,1.3,2.5*36
$GPRMC,024654.000,A,4825.8150,N,12219.4420,W,14.99,91.90,040811,,*14
$GPGGA,024655.000,4825.8147,N,12219.4353,W,1,07,1.3,31.8,M,-16.8,M,,0000*5A
$GPGSA,A,3,10,25,12,31,05,02,29,,,,,,2.8,1.3,2.5*36
$GPRMC,024655.000,A,4825.8147,N,12219.4353,W,16.97,94.19,040811,,*18
$GPGGA,024656.000,4825.8145,N,12219.4280,W,1,07,1.3,32.1,M,-16.8,M,,0000*5E
$GPGSA,A,3,10,25,12,31,05,02,29,,,,,,2.8,1.3,2.5*36
$GPRMC,024656.000,A,4825.8145,N,12219.4280,W,17.70,93.55,040811,,*11
$GPGGA,024657.000,4825.8143,N,12219.4206,W,1,08,1.3,32.5,M,-16.8,M,,0000*5C
$GPGSA,A,3,04,10,25,12,31,05,02,29,,,,,2.3,1.3,1.9*36
$GPGSV,3,1,11,25,67,242,45,02,52,061,43,29,52,291,43,12,48,172,37*73
$GPGSV,3,2,11,05,44,123,40,10,29,056,35,31,21,301,30,04,07,056,17*70
$GPGSV,3,3,11,21,07,233,20,09,06,220,,13,03,029,*48
$GPRMC,024657.000,A,4825.8143,N,12219.4206,W,17.72,91.22,040811,,*18
$GPGGA,024658.000,4825.8143,N,12219.4132,W,1,08,1.3,33.3,M,-16.8,M,,0000*50
$GPGSA,A,3,04,10,25,12,31,05,02,29,,,,,2.3,1.3,1.9*36
$GPRMC,024658.000,A,4825.8143,N,12219.4132,W,17.22,90.76,040811,,*16
$GPGGA,024659.000,4825.8143,N,12219.4061,W,1,08,1.3,33.8,M,-16.8,M,,0000*5D
$GPGSA,A,3,04,10,25,12,31,05,02,29,,,,,2.3,1.3,1.9*36
$GPRMC,024659.000,A,4825.8143,N,12219.4061,W,16.75,90.18,040811,,*1B
$GPGGA,024700.000,4825.8143,N,12219.3993,W,1,08,1.3,34.4,M,-16.8,M,,0000*58
$GPGSA,A,3,04,10,25,12,31,05,02,29,,,,,2.3,1.3,1.9*36
$GPRMC,024700.000,A,4825.8143,N,12219.3993,W,15.28,89.00,040811,,*1F
$GPGGA,024701.000,4825.8144,N,12219.3932,W,1,08,1.3,34.9,M,-16.8,M,,0000*58
$GPGSA,A,3,04,10,25,12,31,05,02,29,,,,,2.3,1.3,1.9*36
$GPRMC,024701.000,A,4825.8144,N,12219.3932,W,14.20,89.32,040811,,*1A
$GPGGA,024702.000,4825.8145,N,12219.3875,W,1,08,1.3,35.1,M,-16.8,M,,0000*51
$GPGSA,A,3,04,10,25,12,31,05,02,29,,,,,2.3,1.3,1.9*36
$GPGSV,3,1,11,25,67,242,46,02,52,061,43,29,52,291,43,12,48,172,41*71
$GPGSV,3,2,11,05,44,123,31,10,29,056,35,31,21,301,40,04,07,056,17*71
$GPGSV,3,3,11,21,07,233,19,09,06,220,,13,03,029,*42
$GPRMC,024702.000,A,4825.8145,N,12219.3875,W,12.75,88.30,040811,,*1F
$GPGGA,024703.000,4825.8146,N,12219.3825,W,1,08,1.3,35.4,M,-16.8,M,,0000*53
$GPGSA,A,3,04,10,25,12,31,05,02,29,,,,,2.3,1.3,1.9*36
$GPRMC,024703.000,A,4825.8146,N,12219.3825,W,11.39,91.05,040811,,*1D
$GPGGA,024704.000,4825.8145,N,12219.3775,W,1,08,1.3,35.6,M,-16.8,M,,0000*5F
$GPGSA,A,3,04,10,25,12,31,05,02,29,,,,,2.3,1.3,1.9*36
$GPRMC,024704.000,A,4825.8145,N,12219.3775,W,12.68,94.13,040811,,*16
$GPGGA,024705.000,4825.8143,N,12219.3719,W,1,08,1.3,36.0,M,-16.8,M,,0000*57
$GPGSA,A,3,04,10,25,12,31,05,02,29,,,,,2.3,1.3,1.9*36
$GPRMC,024705.000,A,4825.8143,N,12219.3719,W,14.41,94.39,040811,,*1E
$GPGGA,024706.000,4825.8141,N,12219.3656,W,1,08,1.3,36.4,M,-16.8,M,,0000*58
$GPGSA,A,3,04,10,25,12,31,05,02,29,,,,,2.3,1.3,1.9*36
$GPRMC,024706.000,A,4825.8141,N,12219.3656,W,15.91,92.79,040811,,*1B
$GPGGA,024707.000,4825.8140,N,12219.3588,W,1,08,1.3,36.8,M,-16.8,M,,0000*54
$GPGSA,A,3,04,10,25,12,31,05,02,29,,,,,2.3,1.3,1.9*36
$GPGSV,3,1,11,25,67,242,47,02,52,061,43,29,52,291,44,12,48,172,32*73
$GPGSV,3,2,11,05,44,123,32,10,29,056,29,31,21,301,37,04,07,056,18*70
$GPGSV,3,3,11,21,07,233,,09,06,220,,13,03,029,*4A
$GPRMC,024707.000,A,4825.8140,N,12219.3588,W,17.08,90.37,040811,,*11
$GPGGA,024708.000,4825.8140,N,12219.3515,W,1,08,1.3,37.0,M,-16.8,M,,0000*56
$GPGSA,A,3,04,10,25,12,31,05,02,29,,,,,2.3,1.3,1.9*36
$GPRMC,024708.000,A,4825.8140,N,12219.3515,W,17.83,89.94,040811,,*18
$GPGGA,024709.000,4825.8140,N,12219.3440,W,1,08,1.3,37.0,M,-16.8,M,,0000*56
$GPGSA,A,3,04,10,25,12,31,05,02,29,,,,,2.3,1.3,1.9*36
$GPRMC,024709.000,A,4825.8140,N,12219.3440,W,18.12,89.60,040811,,*14
$GPGGA,024710.000,4825.8139,N,12219.3366,W,1,08,1.3,36.8,M,-16.8,M,,0000*5A
$GPGSA,A,3,04,10,25,12,31,05,02,29,,,,,2.3,1.3,1.9*36
$GPRMC,024710.000,A,4825.8139,N,12219.3366,W,17.41,89.31,040811,,*1C
$GPGGA,024711.000,4825.8139,N,12219.3291,W,1,08,1.3,36.7,M,-16.8,M,,0000*5D
$GPGSA,A,3,04,10,25,12,31,05,02,29,,,,,2.3,1.3,1.9*36
$GPRMC,024711.000,A,4825.8139,N,12219.3291,W,18.38,91.52,040811,,*19
$GPGGA,024712.000,4825.8138,N,12219.3214,W,1,08,1.3,37.1,M,-16.8,M,,0000*55
$GPGSA,A,3,04,10,25,12,31,05,02,29,,,,,2.3,1.3,1.9*36
$GPGSV,3,1,11,25,67,242,41,02,52,061,37,29,52,291,38,12,48,172,40*78
$GPGSV,3,2,11,05,44,123,33,10,29,056,31,31,21,301,31,04,07,056,20*75
$GPGSV,3,3,11,21,07,233,,09,06,220,,13,03,029,*4A
$GPRMC,024712.000,A,4825.8138,N,12219.3214,W,18.48,91.15,040811,,*12
$GPGGA,024713.000,4825.8139,N,12219.3135,W,1,08,1.3,37.2,M,-16.8,M,,0000*56
$GPGSA,A,3,04,10,25,12,31,05,02,29,,,,,2.3,1.3,1.9*36
$GPRMC,024713.000,A,4825.8139,N,12219.3135,W,19.23,89.39,040811,,*19
$GPGGA,024714.000,4825.8138,N,12219.3054,W,1,08,1.3,37.6,M,-16.8,M,,0000*52
$GPGSA,A,3,04,10,25,12,31,05,02,29,,,,,2.3,1.3,1.9*36
$GPRMC,024714.000,A,4825.8138,N,12219.3054,W,19.45,93.05,040811,,*1D
$GPGGA,024715.000,4825.8136,N,12219.2972,W,1,08,1.3,37.3,M,-16.8,M,,0000*54
$GPGSA,A,3,04,10,25,12,31,05,02,29,,,,,2.3,1.3,1.9*36
$GPRMC,024715.000,A,4825.8136,N,12219.2972,W,19.88,90.44,040811,,*19
$GPGGA,024716.000,4825.8136,N,12219.2888,W,1,08,1.3,37.3,M,-16.8,M,,0000*53
$GPGSA,A,3,04,10,25,12,31,05,02,29,,,,,2.3,1.3,1.9*36
$GPRMC,024716.000,A,4825.8136,N,12219.2888,W,19.84,89.85,040811,,*17
$GPGGA,024717.000,4825.8138,N,12219.2803,W,1,08,1.3,38.0,M,-16.8,M,,0000*53
$GPGSA,A,3,04,10,25,12,31,05,02,29,,,,,2.3,1.3,1.9*36
$GPGSV,3,1,11,25,67,242,45,02,52,061,38,29,52,291,42,12,48,172,37*7E
$GPGSV,3,2,11,05,44,123,38,10,29,056,35,31,21,301,32,04,07,056,20*79
$GPGSV,3,3,11,21,07,233,,09,06,220,,13,03,029,*4A
$GPRMC,024717.000,A,4825.8138,N,12219.2803,W,20.29,89.26,040811,,*1F
$GPGGA,024718.000,4825.8139,N,12219.2716,W,1,08,1.3,38.4,M,-16.8,M,,0000*52
$GPGSA,A,3,04,10,25,12,31,05,02,29,,,,,2.3,1.3,1.9*36
$GPRMC,024718.000,A,4825.8139,N,12219.2716,W,20.87,89.85,040811,,*17
$GPGGA,024719.000,4825.8138,N,12219.2628,W,1,08,1.3,38.4,M,-16.8,M,,0000*5E
$GPGSA,A,3,04,10,25,12,31,05,02,29,,,,,2.3,1.3,1.9*36
$GPRMC,024719.000,A,4825.8138,N,12219.2628,W,21.21,91.51,040811,,*16
$GPGGA,024720.000,4825.8138,N,12219.2538,W,1,07,1.3,38.4,M,-16.8,M,,0000*59
$GPGSA,A,3,10,25,12,31,05,02,29,,,,,,2.8,1.3,2.5*36
$GPRMC,024720.000,A,4825.8138,N,12219.2538,W,21.52,89.94,040811,,*1A
$GPGGA,024721.000,4825.8138,N,12219.2448,W,1,07,1.3,38.3,M,-16.8,M,,0000*59
$GPGSA,A,3,10,25,12,31,05,02,29,,,,,,2.8,1.3,2.5*36
$GPRMC,024721.000,A,4825.8138,N,12219.2448,W,21.72,90.04,040811,,*1E
$GPGGA,024722.000,4825.8140,N,12219.2357,W,1,07,1.3,38.4,M,-16.8,M,,0000*5B
$GPGSA,A,3,10,25,12,31,05,02,29,,,,,,2.8,1.3,2.5*36
$GPGSV,3,1,11,25,67,242,42,02,52,061,41,29,52,291,41,12,48,172,34*77
$GPGSV,3,2,11,05,44,123,31,10,29,056,32,31,21,301,28,04,07,056,*7E
$GPGSV,3,3,11,21,07,233,,09,06,220,,13,03,029,*4A
$GPRMC,024722.000,A,4825.8140,N,12219.2357,W,21.84,88.38,040811,,*14
$GPGGA,024723.000,4825.8141,N,12219.2266,W,1,07,1.3,38.6,M,-16.8,M,,0000*5A
$GPGSA,A,3,10,25,12,31,05,02,29,,,,,,2.8,1.3,2.5*36
$GPRMC,024723.000,A,4825.8141,N,12219.2266,W,21.60,89.87,040811,,*18
$GPGGA,024724.000,4825.8140,N,12219.2177,W,1,07,1.3,38.5,M,-16.8,M,,0000*5C
$GPGSA,A,3,10,25,12,31,05,02,29,,,,,,2.8,1.3,2.5*36
$GPRMC,024724.000,A,4825.8140,N,12219.2177,W,21.19,91.96,040811,,*1A
$GPGGA,024725.000,4825.8138,N,12219.2090,W,1,07,1.5,38.8,M,-16.8,M,,0000*51
$GPGSA,A,3,10,25,12,04,05,02,29,,,,,,2.9,1.5,2.5*37
$GPRMC,024725.000,A,4825.8138,N,12219.2090,W,20.34,94.57,040811,,*1A
$GPGGA,024726.000,4825.8134,N,12219.2004,W,1,07,1.5,38.8,M,-16.8,M,,0000*53
$GPGSA,A,3,10,25,12,04,05,02,29,,,,,,2.9,1.5,2.5*37
$GPRMC,024726.000,A,4825.8134,N,12219.2004,W,20.57,92.87,040811,,*16
$GPGGA,024727.000,4825.8131,N,12219.1917,W,1,08,1.3,37.8,M,-16.8,M,,0000*59
$GPGSA,A,3,31,10,25,12,04,05,02,29,,,,,2.3,1.3,1.9*36
$GPGSV,3,1,11,25,67,242,40,02,52,061,43,29,52,291,43,12,48,172,38*79
$GPGSV,3,2,11,05,44,123,40,10,29,056,39,31,21,301,25,04,07,056,24*78
$GPGSV,3,3,11,21,07,233,,09,06,220,,13,03,029,*4A
$GPRMC,024727.000,A,4825.8131,N,12219.1917,W,20.70,92.08,040811,,*18
$GPGGA,024728.000,4825.8128,N,12219.1832,W,1,08,1.3,37.4,M,-16.8,M,,0000*54
$GPGSA,A,3,31,10,25,12,04,05,02,29,,,,,2.3,1.3,1.9*36
$GPRMC,024728.000,A,4825.8128,N,12219.1832,W,20.24,93.29,040811,,*1A
$GPGGA,024729.000,4825.8125,N,12219.1749,W,1,08,1.3,36.8,M,-16.8,M,,0000*56
$GPGSA,A,3,31,10,25,12,04,05,02,29,,,,,2.3,1.3,1.9*36
$GPRMC,024729.000,A,4825.8125,N,12219.1749,W,19.50,93.55,040811,,*17
$GPGGA,024730.000,4825.8122,N,12219.1669,W,1,08,1.3,36.2,M,-16.8,M,,0000*50
$GPGSA,A,3,31,10,25,12,04,05,02,29,,,,,2.3,1.3,1.9*36
$GPRMC,024730.000,A,4825.8122,N,12219.1669,W,18.69,93.01,040811,,*11
$GPGGA,024731.000,4825.8119,N,12219.1593,W,1,08,1.3,35.2,M,-16.8,M,,0000*5C
$GPGSA,A,3,31,10,25,12,04,05,02,29,,,,,2.3,1.3,1.9*36
$GPRMC,024731.000,A,4825.8119,N,12219.1593,W,18.10,93.33,040811,,*11
$GPGGA,024732.000,4825.8117,N,12219.1524,W,1,08,1.3,34.5,M,-16.8,M,,0000*5B
$GPGSA,A,3,31,10,25,12,04,05,02,29,,,,,2.3,1.3,1.9*36
$GPGSV,3,1,11,25,67,242,46,02,52,061,43,29,52,291,43,12,48,172,43*73
$GPGSV,3,2,11,05,44,123,40,10,29,056,41,31,21,301,37,04,07,056,37*76
$GPGSV,3,3,11,21,07,233,,09,06,220,,13,03,029,28*40
$GPRMC,024732.000,A,4825.8117,N,12219.1524,W,15.28,91.12,040811,,*17
$GPGGA,024733.000,4825.8116,N,12219.1467,W,1,08,1.3,34.0,M,-16.8,M,,0000*58
$GPGSA,A,3,31,10,25,12,04,05,02,29,,,,,2.3,1.3,1.9*36
$GPRMC,024733.000,A,4825.8116,N,12219.1467,W,12.17,91.93,040811,,*13
$GPGGA,024734.000,4825.8113,N,12219.1425,W,1,08,1.3,33.4,M,-16.8,M,,0000*5F
$GPGSA,A,3,31,10,25,12,04,05,02,29,,,,,2.3,1.3,1.9*36
$GPRMC,024734.000,A,4825.8113,N,12219.1425,W,8.84,100.94,040811,,*18
$GPGGA,024735.000,4825.8107,N,12219.1399,W,1,08,1.3,32.9,M,-16.8,M,,0000*57
$GPGSA,A,3,31,10,25,12,04,05,02,29,,,,,2.3,1.3,1.9*36
$GPRMC,024735.000,A,4825.8107,N,12219.1399,W,4.96,115.26,040811,,*1E
$GPGGA,024736.000,4825.8104,N,12219.1389,W,1,08,1.3,32.5,M,-16.8,M,,0000*5A
$GPGSA,A,3,31,10,25,12,04,05,02,29,,,,,2.3,1.3,1.9*36
$GPRMC,024736.000,A,4825.8104,N,12219.1389,W,0.73,119.25,040811,,*1F
$GPGGA,024737.000,4825.8103,N,12219.1389,W,1,08,1.3,32.2,M,-16.8,M,,0000*5B
$GPGSA,A,3,31,10,25,12,04,05,02,29,,,,,2.3,1.3,1.9*36
$GPGSV,3,1,11,25,67,242,47,02,52,061,43,29,52,291,43,12,48,172,43*72
$GPGSV,3,2,11,05,44,123,43,10,29,056,41,31,21,301,39,04,07,056,33*7F
$GPGSV,3,3,11,21,07,233,,09,06,220,,13,03,029,31*48
$GPRMC,024737.000,A,4825.8103,N,12219.1389,W,0.06,158.09,040811,,*10
$GPGGA,024738.000,4825.8103,N,12219.1391,W,1,08,1.3,31.9,M,-16.8,M,,0000*55
$GPGSA,A,3,31,10,25,12,04,05,02,29,,,,,2.3,1.3,1.9*36
$GPRMC,024738.000,A,4825.8103,N,12219.1391,W,0.05,167.74,040811,,*13
$GPGGA,024739.000,4825.8102,N,12219.1392,W,1,08,1.3,31.6,M,-16.8,M,,0000*59
$GPGSA,A,3,31,10,25,12,04,05,02,29,,,,,2.3,1.3,1.9*36
$GPRMC,024739.000,A,4825.8102,N,12219.1392,W,0.05,157.60,040811,,*16
$GPGGA,024740.000,4825.8102,N,12219.1393,W,1,08,1.3,31.4,M,-16.8,M,,0000*54
$GPGSA,A,3,31,10,25,12,04,05,02,29,,,,,2.3,1.3,1.9*36
$GPRMC,024740.000,A,4825.8102,N,12219.1393,W,0.04,153.18,040811,,*13
$GPGGA,024741.000,4825.8102,N,12219.1393,W,1,08,1.3,31.3,M,-16.8,M,,0000*52
$GPGSA,A,3,31,10,25,12,04,05,02,29,,,,,2.3,1.3,1.9*36
$GPRMC,024741.000,A,4825.8102,N,12219.1393,W,0.04,141.89,040811,,*19
$GPGGA,024742.000,4825.8101,N,12219.1394,W,1,08,1.3,31.1,M,-16.8,M,,0000*57
$GPGSA,A,3,31,10,25,12,04,05,02,29,,,,,2.3,1.3,1.9*36
$GPGSV,3,1,11,25,67,242,47,02,52,061,43,29,52,291,43,12,48,172,42*73
$GPGSV,3,2,11,05,44,123,44,10,29,056,41,31,21,301,39,04,07,056,32*79
$GPGSV,3,3,11,21,07,233,,09,06,220,,13,03,029,31*48
$GPRMC,024742.000,A,4825.8101,N,12219.1394,W,0.04,141.00,040811,,*1F
$GPGGA,024743.000,4825.8101,N,12219.1395,W,1,08,1.3,31.0,M,-16.8,M,,0000*56
$GPGSA,A,3,31,10,25,12,04,05,02,29,,,,,2.3,1.3,1.9*36
$GPRMC,024743.000,A,4825.8101,N,12219.1395,W,0.02,178.48,040811,,*1F
$GPGGA,024744.000,4825.8099,N,12219.1392,W,1,08,1.3,30.9,M,-16.8,M,,0000*5E
$GPGSA,A,3,31,10,25,12,04,05,02,29,,,,,2.3,1.3,1.9*36
$GPRMC,024744.000,A,4825.8099,N,12219.1392,W,1.89,119.72,040811,,*13
$GPGGA,024745.000,4825.8092,N,12219.1381,W,1,08,1.3,30.9,M,-16.8,M,,0000*56
$GPGSA,A,3,31,10,25,12,04,05,02,29,,,,,2.3,1.3,1.9*36
$GPRMC,024745.000,A,4825.8092,N,12219.1381,W,5.66,133.84,040811,,*1F
$GPGGA,024746.000,4825.8074,N,12219.1365,W,1,08,1.3,31.1,M,-16.8,M,,0000*5E
$GPGSA,A,3,31,10,25,12,04,05,02,29,,,,,2.3,1.3,1.9*36
$GPRMC,024746.000,A,4825.8074,N,12219.1365,W,9.12,157.45,040811,,*1E
$GPGGA,024747.000,4825.8044,N,12219.1355,W,1,08,1.3,31.3,M,-16.8,M,,0000*5D
$GPGSA,A,3,31,10,25,12,04,05,02,29,,,,,2.3,1.3,1.9*36
$GPGSV,3,1,11,25,67,242,47,02,52,061,43,29,52,291,44,12,48,172,43*75
$GPGSV,3,2,11,05,44,123,44,10,29,056,42,31,21,301,39,04,07,056,31*79
$GPGSV,3,3,11,21,07,233,,09,06,220,,13,03,029,28*40
$GPRMC,024747.000,A,4825.8044,N,12219.1355,W,12.58,172.81,040811,,*24
$GPGGA,024748.000,4825.8007,N,12219.1350,W,1,08,1.3,31.3,M,-16.8,M,,0000*50
$GPGSA,A,3,31,10,25,12,04,05,02,29,,,,,2.3,1.3,1.9*36
$GPRMC,024748.000,A,4825.8007,N,12219.1350,W,13.70,176.91,040811,,*27
$GPGGA,024749.000,4825.7966,N,12219.1349,W,1,07,1.3,31.6,M,-16.8,M,,0000*52
$GPGSA,A,3,31,10,25,12,05,02,29,,,,,,2.8,1.3,2.5*36
$GPRMC,024749.000,A,4825.7966,N,12219.1349,W,15.15,179.31,040811,,*2F
$GPGGA,024750.000,4825.7919,N,12219.1349,W,1,07,1.3,31.9,M,-16.8,M,,0000*5D
$GPGSA,A,3,31,10,25,12,05,02,29,,,,,,2.8,1.3,2.5*36
$GPRMC,024750.000,A,4825.7919,N,12219.1349,W,17.83,179.17,040811,,*26
$GPGGA,024751.000,4825.7864,N,12219.1349,W,1,08,1.3,32.3,M,-16.8,M,,0000*51
$GPGSA,A,3,31,10,25,12,04,05,02,29,,,,,2.3,1.3,1.9*36
$GPRMC,024751.000,A,4825.7864,N,12219.1349,W,20.46,179.64,040811,,*25
$GPGGA,024752.000,4825.7802,N,12219.1349,W,1,08,1.3,32.8,M,-16.8,M,,0000*59
$GPGSA,A,3,31,10,25,12,04,05,02,29,,,,,2.3,1.3,1.9*36
$GPGSV,3,1,11,25,67,242,47,02,52,061,43,29,52,291,38,12,48,172,44*79
$GPGSV,3,2,11,05,44,123,43,10,29,056,38,31,21,301,27,04,07,056,31*7C
$GPGSV,3,3,11,21,07,233,,09,06,220,,13,03,029,25*4D
$GPRMC,024752.000,A,4825.7802,N,12219.1349,W,22.98,180.14,040811,,*26
$GPGGA,024753.000,4825.7737,N,12219.1350,W,1,08,1.3,33.4,M,-16.8,M,,0000*54
$GPGSA,A,3,31,10,25,12,04,05,02,29,,,,,2.3,1.3,1.9*36
$GPRMC,024753.000,A,4825.7737,N,12219.1350,W,23.10,180.19,040811,,*2A
$GPGGA,024754.000,4825.7670,N,12219.1350,W,1,08,1.3,34.2,M,-16.8,M,,0000*50
$GPGSA,A,3,31,10,25,12,04,05,02,29,,,,,2.3,1.3,1.9*36
$GPRMC,024754.000,A,4825.7670,N,12219.1350,W,24.00,179.78,040811,,*28
$GPGGA,024755.000,4825.7601,N,12219.1349,W,1,08,1.3,35.0,M,-16.8,M,,0000*5C
$GPGSA,A,3,31,10,25,12,04,05,02,29,,,,,2.3,1.3,1.9*36
$GPRMC,024755.000,A,4825.7601,N,12219.1349,W,25.13,179.63,040811,,*2E
$GPGGA,024756.000,4825.7529,N,12219.1348,W,1,08,1.3,35.9,M,-16.8,M,,0000*5E
$GPGSA,A,3,31,10,25,12,04,05,02,29,,,,,2.3,1.3,1.9*36
$GPRMC,024756.000,A,4825.7529,N,12219.1348,W,25.65,179.29,040811,,*2A
$GPGGA,024757.000,4825.7458,N,12219.1347,W,1,07,1.5,36.8,M,-16.8,M,,0000*5C
$GPGSA,A,3,10,25,12,04,05,02,29,,,,,,2.9,1.5,2.5*37
$GPGSV,3,1,11,25,67,242,47,02,52,061,43,29,52,291,45,12,48,172,44*73
$GPGSV,3,2,11,05,44,123,43,10,29,056,38,31,21,301,21,04,07,056,33*78
$GPGSV,3,3,11,21,07,233,,09,06,220,,13,03,029,29*41
$GPRMC,024757.000,A,4825.7458,N,12219.1347,W,24.33,178.75,040811,,*29
$GPGGA,024758.000,4825.7393,N,12219.1345,W,1,07,1.5,37.7,M,-16.8,M,,0000*5F
$GPGSA,A,3,10,25,12,04,05,02,29,,,,,,2.9,1.5,2.5*37
$GPRMC,024758.000,A,4825.7393,N,12219.1345,W,22.17,178.66,040811,,*26
$GPGGA,024759.000,4825.7333,N,12219.1343,W,1,07,1.5,38.6,M,-16.8,M,,0000*5C
$GPGSA,A,3,10,25,12,04,05,02,29,,,,,,2.9,1.5,2.5*37
$GPRMC,024759.000,A,4825.7333,N,12219.1343,W,20.01,178.80,040811,,*26
$GPGGA,024800.000,4825.7280,N,12219.1342,W,1,07,1.5,39.4,M,-16.8,M,,0000*54
$GPGSA,A,3,10,25,12,04,05,02,29,,,,,,2.9,1.5,2.5*37
$GPRMC,024800.000,A,4825.7280,N,12219.1342,W,17.78,179.21,040811,,*2D
$GPGGA,024801.000,4825.7233,N,12219.1341,W,1,07,1.5,40.3,M,-16.8,M,,0000*57
$GPGSA,A,3,10,25,12,04,05,02,29,,,,,,2.9,1.5,2.5*37
$GPRMC,024801.000,A,4825.7233,N,12219.1341,W,15.62,179.64,040811,,*2F
$GPGGA,024802.000,4825.7192,N,12219.1342,W,1,07,1.5,41.0,M,-16.8,M,,0000*5D
$GPGSA,A,3,10,25,12,04,05,02,29,,,,,,2.9,1.5,2.5*37
$GPGSV,3,1,11,25,67,242,47,02,52,061,42,29,52,291,45,12,48,172,44*72
$GPGSV,3,2,11,05,44,123,43,10,29,056,38,31,21,301,,04,07,056,33*7B
$GPGSV,3,3,11,21,07,233,,09,06,220,,13,03,029,31*48
$GPRMC,024802.000,A,4825.7192,N,12219.1342,W,13.56,179.94,040811,,*29
$GPGGA,024803.000,4825.7156,N,12219.1342,W,1,08,1.3,41.7,M,-16.8,M,,0000*5A
$GPGSA,A,3,31,10,25,12,04,05,02,29,,,,,2.3,1.3,1.9*36
$GPRMC,024803.000,A,4825.7156,N,12219.1342,W,11.93,179.83,040811,,*2D
$GPGGA,024804.000,4825.7126,N,12219.1342,W,1,08,1.3,42.2,M,-16.8,M,,0000*5C
$GPGSA,A,3,31,10,25,12,04,05,02,29,,,,,2.3,1.3,1.9*36
$GPRMC,024804.000,A,4825.7126,N,12219.1342,W,9.20,179.38,040811,,*1C
$GPGGA,024805.000,4825.7106,N,12219.1342,W,1,08,1.3,42.6,M,-16.8,M,,0000*5B
$GPGSA,A,3,31,10,25,12,04,05,02,29,,,,,2.3,1.3,1.9*36
$GPRMC,024805.000,A,4825.7106,N,12219.1342,W,5.24,178.90,040811,,*14
$GPGGA,024806.000,4825.7097,N,12219.1342,W,1,08,1.3,43.0,M,-16.8,M,,0000*56
$GPGSA,A,3,31,10,25,12,04,05,02,29,,,,,2.3,1.3,1.9*36
$GPRMC,024806.000,A,4825.7097,N,12219.1342,W,1.89,176.87,040811,,*15
$GPGGA,024807.000,4825.7094,N,12219.1342,W,1,08,1.3,43.2,M,-16.8,M,,0000*56
$GPGSA,A,3,31,10,25,12,04,05,02,29,,,,,2.3,1.3,1.9*36
$GPGSV,3,1,11,25,67,242,47,02,52,061,42,29,52,291,45,12,48,172,43*75
$GPGSV,3,2,11,05,44,123,43,10,29,056,38,31,21,301,34,04,07,056,34*7B
$GPGSV,3,3,11,21,07,233,,09,06,220,,13,03,029,31*48
$GPRMC,024807.000,A,4825.7094,N,12219.1342,W,0.11,106.53,040811,,*19
$GPGGA,024808.000,4825.7094,N,12219.1342,W,1,08,1.3,43.4,M,-16.8,M,,0000*5F
$GPGSA,A,3,31,10,25,12,04,05,02,29,,,,,2.3,1.3,1.9*36
$GPRMC,024808.000,A,4825.7094,N,12219.1342,W,0.09,110.01,040811,,*1F
$GPGGA,024809.000,4825.7094,N,12219.1342,W,1,08,1.3,43.6,M,-16.8,M,,0000*5C
$GPGSA,A,3,31,10,25,12,04,05,02,29,,,,,2.3,1.3,1.9*36
$GPRMC,024809.000,A,4825.7094,N,12219.1342,W,0.08,104.71,040811,,*1D
$GPGGA,024810.000,4825.7094,N,12219.1342,W,1,08,1.3,43.8,M,-16.8,M,,0000*5A
$GPGSA,A,3,31,10,25,12,04,05,02,29,,,,,2.3,1.3,1.9*36
$GPRMC,024810.000,A,4825.7094,N,12219.1342,W,0.08,113.79,040811,,*1B
$GPGGA,024811.000,4825.7094,N,12219.1341,W,1,08,1.3,43.9,M,-16.8,M,,0000*59
$GPGSA,A,3,31,10,25,12,04,05,02,29,,,,,2.3,1.3,1.9*36
$GPRMC,024811.000,A,4825.7094,N,12219.1341,W,0.07,119.17,040811,,*14
$GPGGA,024812.000,4825.7095,N,12219.1341,W,1,08,1.3,43.9,M,-16.8,M,,0000*5B
$GPGSA,A,3,31,10,25,12,04,05,02,29,,,,,2.3,1.3,1.9*36
$GPGSV,3,1,11,25,67,242,46,02,52,061,42,29,52,291,45,12,48,172,42*75
$GPGSV,3,2,11,05,44,123,44,10,29,056,37,31,21,301,34,04,07,056,34*73
$GPGSV,3,3,11,21,07,233,,09,06,220,,13,03,029,31*48
$GPRMC,024812.000,A,4825.7095,N,12219.1341,W,0.07,117.62,040811,,*1A
$GPGGA,024813.000,4825.7095,N,12219.1341,W,1,08,1.3,44.0,M,-16.8,M,,0000*54
$GPGSA,A,3,31,10,25,12,04,05,02,29,,,,,2.3,1.3,1.9*36
$GPRMC,024813.000,A,4825.7095,N,12219.1341,W,0.07,124.59,040811,,*13
$GPGGA,024814.000,4825.7095,N,12219.1341,W,1,08,1.3,44.0,M,-16.8,M,,0000*53
$GPGSA,A,3,31,10,25,12,04,05,02,29,,,,,2.3,1.3,1.9*36
$GPRMC,024814.000,A,4825.7095,N,12219.1341,W,0.06,137.80,040811,,*13
$GPGGA,024815.000,4825.7095,N,12219.1341,W,1,08,1.3,44.0,M,-16.8,M,,0000*52
$GPGSA,A,3,31,10,25,12,04,05,02,29,,,,,2.3,1.3,1.9*36
$GPRMC,024815.000,A,4825.7095,N,12219.1341,W,0.06,126.73,040811,,*1E
$GPGGA,024816.000,4825.7095,N,12219.1341,W,1,08,1.3,43.9,M,-16.8,M,,0000*5F
$GPGSA,A,3,31,10,25,12,04,05,02,29,,,,,2.3,1.3,1.9*36
$GPRMC,024816.000,A,4825.7095,N,12219.1341,W,0.05,130.69,040811,,*12
$GPGGA,024817.000,4825.7095,N,12219.1341,W,1,08,1.3,44.0,M,-16.8,M,,0000*50
$GPGSA,A,3,31,10,25,12,04,05,02,29,,,,,2.3,1.3,1.9*36
$GPGSV,3,1,11,25,67,242,46,02,52,061,42,29,52,291,45,12,48,172,42*75
$GPGSV,3,2,11,05,44,123,45,10,29,056,38,31,21,301,34,04,07,056,34*7D
$GPGSV,3,3,11,21,07,233,,09,06,220,,13,03,029,31*48
$GPRMC,024817.000,A,4825.7095,N,12219.1341,W,0.06,136.19,040811,,*11
$GPGGA,024818.000,4825.7095,N,12219.1341,W,1,08,1.3,44.0,M,-16.8,M,,0000*5F
$GPGSA,A,3,31,10,25,12,04,05,02,29,,,,,2.3,1.3,1.9*36
$GPRMC,024818.000,A,4825.7095,N,12219.1341,W,0.06,138.81,040811,,*11
$GPGGA,024819.000,4825.7095,N,12219.1341,W,1,08,1.3,44.0,M,-16.8,M,,0000*5E
$GPGSA,A,3,31,10,25,12,04,05,02,29,,,,,2.3,1.3,1.9*36
$GPRMC,024819.000,A,4825.7095,N,12219.1341,W,0.05,130.84,040811,,*1E
$GPGGA,024820.000,4825.7096,N,12219.1341,W,1,08,1.3,44.0,M,-16.8,M,,0000*57
$GPGSA,A,3,31,10,25,12,04,05,02,29,,,,,2.3,1.3,1.9*36
$GPRMC,024820.000,A,4825.7096,N,12219.1341,W,0.06,139.23,040811,,*10
$GPGGA,024821.000,4825.7096,N,12219.1341,W,1,08,1.3,44.0,M,-16.8,M,,0000*56
$GPGSA,A,3,31,10,25,12,04,05,02,29,,,,,2.3,1.3,1.9*36
$GPRMC,024821.000,A,4825.7096,N,12219.1341,W,0.05,138.29,040811,,*19
$GPGGA,024822.000,4825.7096,N,12219.1341,W,1,08,1.3,44.0,M,-16.8,M,,0000*55
$GPGSA,A,3,31,10,25,12,04,05,02,29,,,,,2.3,1.3,1.9*36
$GPGSV,3,1,11,25,67,242,47,02,52,061,42,29,52,291,45,12,48,172,41*77
$GPGSV,3,2,11,05,44,123,45,10,29,056,38,31,21,301,35,04,07,056,34*7C
$GPGSV,3,3,11,21,07,233,,09,06,220,,13,03,029,32*4B
$GPRMC,024822.000,A,4825.7096,N,12219.1341,W,0.06,142.97,040811,,*11
$GPGGA,024823.000,4825.7096,N,12219.1341,W,1,08,1.3,44.0,M,-16.8,M,,0000*54
$GPGSA,A,3,31,10,25,12,04,05,02,29,,,,,2.3,1.3,1.9*36
$GPRMC,024823.000,A,4825.7096,N,12219.1341,W,0.05,113.72,040811,,*1C
$GPGGA,024824.000,4825.7096,N,12219.1341,W,1,08,1.3,43.9,M,-16.8,M,,0000*5D
$GPGSA,A,3,31,10,25,12,04,05,02,29,,,,,2.3,1.3,1.9*36
$GPRMC,024824.000,A,4825.7096,N,12219.1341,W,0.05,130.38,040811,,*14
$GPGGA,024825.000,4825.7096,N,12219.1341,W,1,08,1.3,43.9,M,-16.8,M,,0000*5C
$GPGSA,A,3,31,10,25,12,04,05,02,29,,,,,2.3,1.3,1.9*36
$GPRMC,024825.000,A,4825.7096,N,12219.1341,W,0.05,134.95,040811,,*16
$GPGGA,024826.000,4825.7097,N,12219.1341,W,1,08,1.3,43.9,M,-16.8,M,,0000*5E
$GPGSA,A,3,31,10,25,12,04,05,02,29,,,,,2.3,1.3,1.9*36
$GPRMC,024826.000,A,4825.7097,N,12219.1341,W,0.05,129.65,040811,,*17
$GPGGA,024827.000,4825.7097,N,12219.1341,W,1,08,1.3,43.9,M,-16.8,M,,0000*5F
$GPGSA,A,3,31,10,25,12,04,05,02,29,,,,,2.3,1.3,1.9*36
$GPGSV,3,1,11,25,67,242,46,02,52,061,42,29,52,291,45,12,48,172,41*76
$GPGSV,3,2,11,05,44,123,45,10,29,056,39,31,21,301,35,04,07,056,35*7C
$GPGSV,3,3,11,21,07,233,,09,06,220,,13,03,029,33*4A
$GPRMC,024827.000,A,4825.7097,N,12219.1341,W,0.06,134.60,040811,,*1C
$GPGGA,024828.000,4825.7097,N,12219.1341,W,1,08,1.3,43.8,M,-16.8,M,,0000*51
$GPGSA,A,3,31,10,25,12,04,05,02,29,,,,,2.3,1.3,1.9*36
$GPRMC,024828.000,A,4825.7097,N,12219.1341,W,0.04,123.13,040811,,*13
$GPGGA,024829.000,4825.7095,N,12219.1341,W,1,08,1.3,43.8,M,-16.8,M,,0000*52
$GPGSA,A,3,31,10,25,12,04,05,02,29,,,,,2.3,1.3,1.9*36
$GPRMC,024829.000,A,4825.7095,N,12219.1341,W,1.23,177.25,040811,,*10
$GPGGA,024830.000,4825.7086,N,12219.1340,W,1,08,1.3,43.9,M,-16.8,M,,0000*58
$GPGSA,A,3,31,10,25,12,04,05,02,29,,,,,2.3,1.3,1.9*36
$GPRMC,024830.000,A,4825.7086,N,12219.1340,W,5.57,173.70,040811,,*18
$GPGGA,024831.000,4825.7066,N,12219.1331,W,1,08,1.3,44.0,M,-16.8,M,,0000*5F
$GPGSA,A,3,31,10,25,12,04,05,02,29,,,,,2.3,1.3,1.9*36
$GPRMC,024831.000,A,4825.7066,N,12219.1331,W,9.60,156.97,040811,,*17
$GPGGA,024832.000,4825.7041,N,12219.1306,W,1,08,1.3,44.0,M,-16.8,M,,0000*5D
$GPGSA,A,3,31,10,25,12,04,05,02,29,,,,,2.3,1.3,1.9*36
$GPGSV,3,1,11,25,67,239,47,29,53,292,45,02,51,061,42,12,47,172,42*76
$GPGSV,3,2,11,05,44,122,44,10,29,055,40,31,20,300,35,21,08,234,*79
$GPGSV,3,3,11,04,06,056,36,09,05,220,,13,03,028,34*4D
$GPRMC,024832.000,A,4825.7041,N,12219.1306,W,11.65,137.83,040811,,*2B
$GPGGA,024833.000,4825.7019,N,12219.1267,W,1,08,1.3,44.4,M,-16.8,M,,0000*53
$GPGSA,A,3,31,10,25,12,04,05,02,29,,,,,2.3,1.3,1.9*36
$GPRMC,024833.000,A,4825.7019,N,12219.1267,W,12.62,125.07,040811,,*2A
$GPGGA,024834.000,4825.7002,N,12219.1214,W,1,08,1.3,44.4,M,-16.8,M,,0000*5A
$GPGSA,A,3,31,10,25,12,04,05,02,29,,,,,2.3,1.3,1.9*36
$GPRMC,024834.000,A,4825.7002,N,12219.1214,W,14.92,108.11,040811,,*22
$GPGGA,024835.000,4825.6995,N,12219.1147,W,1,08,1.3,44.4,M,-16.8,M,,0000*58
$GPGSA,A,3,31,10,25,12,04,05,02,29,,,,,2.3,1.3,1.9*36
$GPRMC,024835.000,A,4825.6995,N,12219.1147,W,17.61,93.74,040811,,*1F
$GPGGA,024836.000,4825.6994,N,12219.1069,W,1,08,1.3,44.0,M,-16.8,M,,0000*53
$GPGSA,A,3,31,10,25,12,04,05,02,29,,,,,2.3,1.3,1.9*36
$GPRMC,024836.000,A,4825.6994,N,12219.1069,W,19.55,90.68,040811,,*17
$GPGGA,024837.000,4825.6994,N,12219.0982,W,1,08,1.3,43.7,M,-16.8,M,,0000*5F
$GPGSA,A,3,31,10,25,12,04,05,02,29,,,,,2.3,1.3,1.9*36
$GPGSV,3,1,11,25,67,239,47,29,53,292,44,02,51,061,43,12,47,172,38*7B
$GPGSV,3,2,11,05,44,122,41,10,29,055,41,31,20,300,39,21,08,234,*71
$GPGSV,3,3,11,04,06,056,36,09,05,220,,13,03,028,33*4A
$GPRMC,024837.000,A,4825.6994,N,12219.0982,W,21.02,89.41,040811,,*11
$GPGGA,024838.000,4825.6995,N,12219.0889,W,1,08,1.3,43.2,M,-16.8,M,,0000*5E
$GPGSA,A,3,31,10,25,12,04,05,02,29,,,,,2.3,1.3,1.9*36
$GPRMC,024838.000,A,4825.6995,N,12219.0889,W,23.26,89.63,040811,,*11
$GPGGA,024839.000,4825.6996,N,12219.0787,W,1,08,1.3,42.7,M,-16.8,M,,0000*59
$GPGSA,A,3,31,10,25,12,04,05,02,29,,,,,2.3,1.3,1.9*36
$GPRMC,024839.000,A,4825.6996,N,12219.0787,W,24.81,90.28,040811,,*1F
$GPGGA,024840.000,4825.6996,N,12219.0680,W,1,08,1.3,42.1,M,-16.8,M,,0000*57
$GPGSA,A,3,31,10,25,12,04,05,02,29,,,,,2.3,1.3,1.9*36
$GPRMC,024840.000,A,4825.6996,N,12219.0680,W,25.60,90.09,040811,,*1A
$GPGGA,024841.000,4825.6996,N,12219.0572,W,1,08,1.3,41.2,M,-16.8,M,,0000*58
$GPGSA,A,3,31,10,25,12,04,05,02,29,,,,,2.3,1.3,1.9*36
$GPRMC,024841.000,A,4825.6996,N,12219.0572,W,26.00,90.75,040811,,*1B
$GPGGA,024842.000,4825.6995,N,12219.0462,W,1,08,1.3,40.4,M,-16.8,M,,0000*5F
$GPGSA,A,3,31,10,25,12,04,05,02,29,,,,,2.3,1.3,1.9*36
$GPGSV,3,1,11,25,67,239,48,29,53,292,44,02,51,061,43,12,47,172,44*7F
$GPGSV,3,2,11,05,44,122,42,10,29,055,41,31,20,300,34,21,08,234,*7F
$GPGSV,3,3,11,04,06,056,36,09,05,220,,13,03,028,27*4F
$GPRMC,024842.000,A,4825.6995,N,12219.0462,W,26.17,90.74,040811,,*1C
$GPGGA,024843.000,4825.6995,N,12219.0352,W,1,08,1.3,39.7,M,-16.8,M,,0000*57
$GPGSA,A,3,31,10,25,12,04,05,02,29,,,,,2.3,1.3,1.9*36
$GPRMC,024843.000,A,4825.6995,N,12219.0352,W,26.15,90.58,040811,,*15
$GPGGA,024844.000,4825.6995,N,12219.0243,W,1,08,1.3,39.0,M,-16.8,M,,0000*56
$GPGSA,A,3,31,10,25,12,04,05,02,29,,,,,2.3,1.3,1.9*36
$GPRMC,024844.000,A,4825.6995,N,12219.0243,W,25.83,89.91,040811,,*12
$GPGGA,024845.000,4825.6995,N,12219.0134,W,1,08,1.3,38.4,M,-16.8,M,,0000*51
$GPGSA,A,3,31,10,25,12,04,05,02,29,,,,,2.3,1.3,1.9*36
$GPRMC,024845.000,A,4825.6995,N,12219.0134,W,25.94,89.87,040811,,*11
$GPGGA,024846.000,4825.6996,N,12219.0025,W,1,08,1.3,37.8,M,-16.8,M,,0000*53
$GPGSA,A,3,31,10,25,12,04,05,02,29,,,,,2.3,1.3,1.9*36
$GPRMC,024846.000,A,4825.6996,N,12219.0025,W,26.13,90.24,040811,,*1D
$GPGGA,024847.000,4825.6996,N,12218.9915,W,1,08,1.3,37.4,M,-16.8,M,,0000*5C
$GPGSA,A,3,31,10,25,12,04,05,02,29,,,,,2.3,1.3,1.9*36
$GPGSV,3,1,11,25,67,239,47,29,53,292,44,02,51,061,44,12,47,172,44*77
$GPGSV,3,2,11,05,44,122,42,10,29,055,41,31,20,300,38,21,08,234,*73
$GPGSV,3,3,11,04,06,056,39,09,05,220,,13,03,028,36*40
$GPRMC,024847.000,A,4825.6996,N,12218.9915,W,26.28,90.47,040811,,*13
$GPGGA,024848.000,4825.6995,N,12218.9804,W,1,08,1.3,37.0,M,-16.8,M,,0000*55
$GPGSA,A,3,31,10,25,12,04,05,02,29,,,,,2.3,1.3,1.9*36
$GPRMC,024848.000,A,4825.6995,N,12218.9804,W,26.25,90.55,040811,,*10
$GPGGA,024849.000,4825.6995,N,12218.9695,W,1,08,1.3,36.5,M,-16.8,M,,0000*56
$GPGSA,A,3,31,10,25,12,04,05,02,29,,,,,2.3,1.3,1.9*36
$GPRMC,024849.000,A,4825.6995,N,12218.9695,W,25.97,90.48,040811,,*11
$GPGGA,024850.000,4825.6995,N,12218.9587,W,1,08,1.3,36.1,M,-16.8,M,,0000*5A
$GPGSA,A,3,31,10,25,12,04,05,02,29,,,,,2.3,1.3,1.9*36
$GPRMC,024850.000,A,4825.6995,N,12218.9587,W,25.64,90.60,040811,,*1F
$GPGGA,024851.000,4825.6993,N,12218.9481,W,1,08,1.3,35.7,M,-16.8,M,,0000*5F
$GPGSA,A,3,31,10,25,12,04,05,02,29,,,,,2.3,1.3,1.9*36
$GPRMC,024851.000,A,4825.6993,N,12218.9481,W,24.98,91.68,040811,,*14
$GPGGA,024852.000,4825.6991,N,12218.9377,W,1,08,1.3,35.3,M,-16.8,M,,0000*54
$GPGSA,A,3,31,10,25,12,04,05,02,29,,,,,2.3,1.3,1.9*36
$GPGSV,3,1,11,25,67,239,47,29,53,292,43,02,51,061,43,12,47,172,44*77
$GPGSV,3,2,11,05,44,122,43,10,29,055,42,31,20,300,38,21,08,234,*71
$GPGSV,3,3,11,04,06,056,35,09,05,220,,13,03,028,32*48
$GPRMC,024852.000,A,4825.6991,N,12218.9377,W,24.50,92.20,040811,,*10
$GPGGA,024853.000,4825.6989,N,12218.9276,W,1,08,1.3,34.8,M,-16.8,M,,0000*56
$GPGSA,A,3,31,10,25,12,04,05,02,29,,,,,2.3,1.3,1.9*36
$GPRMC,024853.000,A,4825.6989,N,12218.9276,W,24.10,92.14,040811,,*1B
$GPGGA,024854.000,4825.6987,N,12218.9176,W,1,08,1.3,34.3,M,-16.8,M,,0000*57
$GPGSA,A,3,31,10,25,12,04,05,02,29,,,,,2.3,1.3,1.9*36
$GPRMC,024854.000,A,4825.6987,N,12218.9176,W,23.74,92.29,040811,,*1A
$GPGGA,024855.000,4825.6984,N,12218.9078,W,1,08,1.2,33.9,M,-16.8,M,,0000*56
$GPGSA,A,3,31,10,25,12,04,05,02,29,,,,,2.3,1.2,1.9*37
$GPRMC,024855.000,A,4825.6984,N,12218.9078,W,23.24,92.56,040811,,*1A
$GPGGA,024856.000,4825.6982,N,12218.8982,W,1,08,1.2,33.6,M,-16.8,M,,0000*51
$GPGSA,A,3,31,10,25,12,04,05,02,29,,,,,2.3,1.2,1.9*37
$GPRMC,024856.000,A,4825.6982,N,12218.8982,W,22.46,92.38,040811,,*1F
$GPGGA,024857.000,4825.6980,N,12218.8890,W,1,08,1.2,33.3,M,-16.8,M,,0000*55
$GPGSA,A,3,31,10,25,12,04,05,02,29,,,,,2.3,1.2,1.9*37
$GPGSV,3,1,11,25,67,239,47,29,53,292,43,02,51,061,43,12,47,172,44*77
$GPGSV,3,2,11,05,44,122,43,10,29,055,42,31,20,300,39,21,08,234,*70
$GPGSV,3,3,11,04,06,056,36,09,05,220,,13,03,028,*4A
$GPRMC,024857.000,A,4825.6980,N,12218.8890,W,21.74,90.74,040811,,*16
$GPGGA,024858.000,4825.6980,N,12218.8799,W,1,08,1.2,33.1,M,-16.8,M,,0000*5E
$GPGSA,A,3,31,10,25,12,04,05,02,29,,,,,2.3,1.2,1.9*37
$GPRMC,024858.000,A,4825.6980,N,12218.8799,W,21.57,90.46,040811,,*1F
$GPGGA,024859.000,4825.6980,N,12218.8710,W,1,08,1.2,32.9,M,-16.8,M,,0000*57
$GPGSA,A,3,31,10,25,12,04,05,02,29,,,,,2.3,1.2,1.9*37
$GPRMC,024859.000,A,4825.6980,N,12218.8710,W,21.32,90.62,040811,,*1A
$GPGGA,024900.000,4825.6980,N,12218.8622,W,1,08,1.2,32.7,M,-16.8,M,,0000*54
